PACFIN_YEAR,GEO_ID2,GEO_NAME,STATEABBR,PRIMARY_LATITUDE,PRIMARY_LONGITUDE,LabFrc_Rev,HsChr_Rev,Pvrty,PopCom,PerDis,HsDis,CSVI
2023,3030,"La Push/Quileute Reservation, WA",WA,47.906402,-124.621813,0.5702744673534121,NA,3.0166970100406196,1.22243846692913,3.18889094966251,NA,NA
2023,600135,"Acalanes Ridge, CA",CA,37.904722,-122.078574,0.18052481162507597,-2.0218770176253105,-0.8130172183850871,-0.749864271124058,-0.601177518364,NA,NA
2023,600156,"Acampo, CA",CA,38.173529,-121.279892,-0.8537329259062849,NA,-1.0824446727471198,-0.8830740447220359,2.0336959103934795,NA,NA
2023,600212,"Acton, CA",CA,34.49607,-118.183897,0.306187014782418,-0.5928839480159438,-0.128682607126232,0.170976192333862,-0.639572257608911,-0.077317468894659,-0.9612930745294658
2023,600394,"Agoura Hills, CA",CA,34.148942000000005,-118.76393,-0.305964325453003,-1.80183153018504,-0.579744941729422,-0.3838922811000181,-0.5968149759258559,0.11339157193505103,-3.5548564824582876
2023,600450,"Agua Dulce, CA",CA,34.501678,-118.32068,0.228421178565771,-2.08017645009563,-0.6513186166221471,-0.308457773801772,-0.20961356621344196,NA,NA
2023,600464,"Aguanga, CA",CA,33.452245999999995,-116.85546999999998,1.37473087976996,NA,2.20692149325367,-0.43933899345711214,2.06619407626812,NA,NA
2023,600562,"Alameda, CA",CA,37.741911,-122.259914,-0.682684353650769,-0.963809950345273,-0.3260475542985519,0.7384972819917709,-0.37652634529042206,0.910225005775151,-0.700345915818094
2023,600618,"Alamo, CA",CA,37.85460099999999,-122.012985,0.259728320134087,-2.59050390007605,-0.918690461258012,-0.7593815601174829,-0.908422500624837,-1.06814902131445,-5.9854191232567455
2023,600674,"Albany, CA",CA,37.89065,-122.318116,-0.7831692754760229,-0.957334806779063,-0.2491322899853,0.638331477179253,-0.5903691204896627,1.0513376113944397,-0.890336404156356
2023,600716,"Albion, CA",CA,39.22532700000001,-123.757586,0.7306269896506109,NA,NA,-0.8799204515847442,0.6903005867114388,NA,NA
2023,600786,"Alderpoint, CA",CA,40.161347000000006,-123.615729,2.4258824817920197,NA,NA,-1.7363797127505398,3.17039119585824,NA,NA
2023,600884,"Alhambra, CA",CA,34.083571000000006,-118.136444,-0.3248807095132121,-0.167159602716377,0.24888903359480105,2.27350863101149,0.18946213925802,1.4347743989819697,3.654593890616692
2023,600898,"Alhambra Valley, CA",CA,37.96654,-122.13184699999998,0.2972704403744561,NA,1.48930884698545,-0.0100765530038106,1.09827715227929,NA,NA
2023,600947,"Aliso Viejo, CA",CA,33.579219,-117.728915,-1.2323561495130602,-0.9066610066623292,-0.435024257776134,0.373036524972915,-0.651181343291882,0.224364680881476,-2.6278215513890144
2023,600996,"Allendale, CA",CA,38.442986000000005,-121.98333,0.6939434829959059,-1.5352768831242198,-0.214275514966368,-0.2325149428763341,-0.24267173066370695,NA,NA
2023,601150,"Alondra Park, CA",CA,33.89015500000001,-118.335678,-0.175154533831873,0.0147371094229638,-0.119741437540927,1.85220764630692,0.29830914843351997,0.963943546380144,2.834301479170748
2023,601192,"Alpine, CA",CA,32.842487,-116.755911,-0.0267537886446947,-0.577929263991902,-0.20948230086548408,-0.242381445348378,-0.39136467807233305,-0.20333233899246303,-1.651243815915255
2023,601290,"Altadena, CA",CA,34.19221200000001,-118.135589,-0.195970835957883,-0.9494147417254678,-0.248719191329702,0.6862411337727649,-0.204144420488005,1.4658369828095497,0.5538289270812566
2023,601416,"Alto, CA",CA,37.905581000000005,-122.518718,-0.673610156194429,NA,0.12155333679937098,-0.46122531117574705,0.00442274031150014,NA,NA
2023,601458,"Alum Rock, CA",CA,37.369436,-121.823958,-0.4105811635393031,-0.6935070562467229,-0.28361017823932505,2.3780691898380293,0.5351328773876269,0.3215459581090989,1.847049627309404
2023,601640,"American Canyon, CA",CA,38.17903300000001,-122.259602,-0.5992180299072728,-0.5789228553464771,-0.16713435483048902,1.2721179429738003,0.0662910316411846,1.1993995149298,1.192533249460546
2023,601651,"Amesti, CA",CA,36.959483,-121.781739,-0.00175854722130579,0.43430910765863007,-0.0385258555793785,1.0537244278631397,0.0849536869109644,-0.6711904200022438,0.8615123996298061
2023,602000,"Anaheim, CA",CA,33.823599,-118.016329,-0.5934900849760377,-0.250934886961222,0.32873136650501794,1.66144497391221,0.43324813044979993,0.7737845965598581,2.352784095489626
2023,602028,"Anchor Bay, CA",CA,38.812653000000005,-123.570267,-0.8244912480605211,NA,-0.36557096444254406,1.4792242201680297,0.109129138143343,NA,NA
2023,602168,"Angwin, CA",CA,38.577875,-122.45122400000002,-0.721915633948162,-0.20476888853303504,-0.324786430522506,-0.0403618996313829,-0.0863826282076421,0.6318312047985051,-0.746384276044223
2023,602252,"Antioch, CA",CA,37.979075,-121.796195,-0.42539473052901206,-0.634120229271712,0.16019082481007196,1.15587128364652,0.33152922667079493,0.10954009810575796,0.6976164734324207
2023,602378,"Aptos, CA",CA,36.991150000000005,-121.893455,0.23731078587053703,-0.388871036257205,-0.8449988700261601,-0.300699588239821,-0.777776248360132,-0.254930966333932,-2.329965923346713
2023,602382,"Aptos Hills-Larkin Valley, CA",CA,36.963492,-121.835214,0.621766170616772,-0.7485786959441529,-0.965255779574142,0.29555782900162,0.20675244511306204,-2.0482312136132,-2.637989244400041
2023,602462,"Arcadia, CA",CA,34.132689000000006,-118.036347,-0.0657050031240076,-1.022043262414,-0.29245285416214706,1.59841370839696,-0.349676024913967,0.8124996114397401,0.6810361752225786
2023,602476,"Arcata, CA",CA,40.862291000000006,-124.074967,-0.4716637345400199,0.8065796139619901,0.745929709491608,-0.372162337608903,1.19186483032889,0.6380907682188851,2.5386388498524504
2023,602812,"Aromas, CA",CA,36.874755,-121.63073199999997,-0.07552661265761322,-1.0921029184182802,-0.595715517295939,-0.03416330125740749,-0.6600713138271669,0.35013203263625586,-2.107447630820151
2023,602868,"Arroyo Grande, CA",CA,35.12415300000001,-120.58452800000002,0.15031298910251703,-0.20004348929612303,-0.6575680221025679,-0.33420376844395794,-0.5267240655058021,0.5753294556047082,-0.9928969006412258
2023,602896,"Artesia, CA",CA,33.86759300000001,-118.080635,0.02664705106914179,-0.590389819500219,0.048004364399646,1.82489070978767,0.6400782819272418,1.94739090386669,3.8966214915501705
2023,602980,"Ashland, CA",CA,37.694169,-122.115899,-0.5700869232220609,-0.0218170314811969,0.910286465193183,2.256069697452,0.43616811430552904,1.0957287966058098,4.106349118853264
2023,603064,"Atascadero, CA",CA,35.485718000000006,-120.687942,-0.362981840740707,-0.185667096740824,-0.127188123056694,-0.220218596679011,-0.200891597138694,0.7889326039809068,-0.3080146503750232
2023,603092,"Atherton, CA",CA,37.457072,-122.201058,0.6434674519352879,-2.9949579219800397,-0.887058074805568,-0.48328812659455606,-0.9152094955851612,-1.83556760297192,-6.472613770001957
2023,603274,"Avalon, CA",CA,33.343335,-118.31761500000002,-0.9149629435907,-0.6268992720041232,0.18155643300737104,1.2967179213220204,-0.18185695873843696,1.06502538428866,0.8195805642847911
2023,603330,"Avila Beach, CA",CA,35.19935500000001,-120.720757,1.52053851335845,-1.0884646002041596,-0.249390690275765,-0.956913523906897,-0.932584208315121,NA,NA
2023,603344,"Avocado Heights, CA",CA,34.036769,-118.001783,-0.153651290143697,-0.221571646536908,0.15954936534362904,1.77078217309119,0.5513272447719149,0.955498127501072,3.061933974027201
2023,603386,"Azusa, CA",CA,34.13852400000001,-117.91225300000004,-0.5786657237320388,0.05078748021149221,0.34949324353270095,1.57225059972319,0.36181906843477,1.38149301837074,3.1371776865408543
2023,603666,"Baldwin Park, CA",CA,34.082823999999995,-117.97128600000002,-0.15628272554672504,0.09799170140145586,0.627939756986147,2.48008711848137,0.6421928463518041,1.0754647911931696,4.7673934888672225
2023,603694,"Ballard, CA",CA,34.630473,-120.111782,0.13492636413500703,-1.04678170624562,1.07638331433226,0.0493887054244744,-0.189768609401746,NA,NA
2023,604415,"Bay Point, CA",CA,38.032254,-121.962236,-0.508239858838457,0.23959372256746408,0.31552850564079404,2.22684696264706,0.8374754773184392,0.0606084816843493,3.1718132910196495
2023,604470,"Bayview (Contra Costa County), CA",CA,38.006234000000006,-122.320165,-0.5330540717914619,-0.936558935681566,0.322947746360783,1.9427717425957296,0.301563587603825,NA,NA
2023,604478,"Bayview (Humboldt County), CA",CA,40.765335000000015,-124.178605,0.560830846565667,1.03131252380449,1.34796815417757,0.0935189114494203,1.4351946053023694,0.912809645714976,5.381634687014492
2023,604549,"Baywood Park, CA",CA,37.52919400000001,-122.34166600000002,0.5799354195236942,NA,-0.858266055206557,-0.089259948412728607,-0.9297104444276568,NA,NA
2023,604870,"Bell, CA",CA,33.979704000000005,-118.179249,-0.069290937721168,0.5447787332515762,1.26430172104455,2.68835403082226,1.38294105830871,0.37540364646232594,6.186488252168254
2023,604938,"Bell Canyon, CA",CA,34.20813400000001,-118.687588,0.13100020837858897,NA,-0.7820684242831569,-0.5245770393022889,-0.664673291123602,NA,NA
2023,604982,"Bellflower, CA",CA,33.88782099999999,-118.12725,-0.434895472342988,0.20624210761219008,0.442823028720784,1.6276866083692598,0.6463612519174119,0.6883962335721658,3.1766137578488234
2023,604996,"Bell Gardens, CA",CA,33.964379,-118.154437,-0.11058751284296496,0.402449746387276,1.57667144138277,2.9666857079942295,1.19768135284131,0.293146253503626,6.3260469892662465
2023,605108,"Belmont, CA",CA,37.514398,-122.29447500000002,-0.916022283111789,-1.3399460858154597,-0.355469507391684,0.24281874849924304,-0.465701697415785,0.02816808569748749,-2.8061527395379873
2023,605164,"Belvedere, CA",CA,37.873566999999994,-122.470995,0.6072390594780761,-2.3462373190768897,-0.5908779373045762,-0.645114317405995,-0.9223033918423458,-1.7119373016228698,-5.6092312077746005
2023,605262,"Benbow, CA",CA,40.060267,-123.765381,0.839154478057322,NA,-1.0824446727471198,-1.3850554812392302,0.9505954674324972,NA,NA
2023,605290,"Benicia, CA",CA,38.072733000000014,-122.155169,-0.090989565815207,-0.618824529107776,-0.3230570195707769,0.0122951602175238,-0.5047786567634591,-0.177235361389687,-1.7025899724293825
2023,605332,"Ben Lomond, CA",CA,37.07819600000001,-122.088116,-0.603119138455524,-0.9101308858623028,-0.8729290326563793,-0.5464635828805049,-0.29326250061645,0.9311734326658953,-2.2947317078052656
2023,606000,"Berkeley, CA",CA,37.866972,-122.299147,-0.385645556319964,-0.7607482668088531,-0.4978906220591329,0.12436925845248702,0.0398571582221483,1.07715185878575,-0.40290616972756466
2023,606150,"Bertsch-Oceanview, CA",CA,41.751726999999995,-124.170214,-0.113318856985349,1.2204069860179598,-0.21870725904017504,-0.0119467525464606,-0.383475254037757,-1.3145916254491796,-0.8216327620409615
2023,606210,"Bethel Island, CA",CA,38.02813000000001,-121.629851,1.23467463161532,1.1121520068253004,1.96335386218084,-0.213844517132578,2.14997703981665,-0.4153644552002101,5.830948568105322
2023,606308,"Beverly Hills, CA",CA,34.07923,-118.402437,-0.0542554003128686,-1.30984822294425,-0.16874760450240706,0.06791602440344163,-0.270525719002183,-1.75732057680164,-3.4927814991599067
2023,606567,"Big Lagoon, CA",CA,41.159361,-124.129868,0.7985203184266499,NA,NA,-0.4047094624731179,-0.210144725292016,NA,NA
2023,606928,"Blackhawk, CA",CA,37.809628999999994,-121.913241,0.412138435831006,-2.47099128117365,-0.6016873009441019,-0.39490221617638,-0.812602962928322,NA,NA
2023,606935,"Blacklake, CA",CA,35.049688999999994,-120.538642,1.5360993172981596,-1.37998397060434,-0.6104469877985169,-1.0386704153593698,-1.32162046494016,NA,NA
2023,606982,"Black Point-Green Point, CA",CA,38.110651,-122.519097,0.4390089662675531,-2.0717786024640095,-0.05909075026594231,-0.493815322236612,-0.645475547403438,-0.33527029377028,-3.166421549872729
2023,607036,"Bloomfield, CA",CA,38.322069000000006,-122.834464,-0.05571088724030111,NA,-0.8755524133501061,-1.1465033288413802,-0.7865228286685669,NA,NA
2023,607162,"Blue Lake, CA",CA,40.88320099999999,-123.994716,0.124029872579251,0.7473773686353689,0.5158237950362919,-0.307538232865403,0.6086495782731342,1.38323647986013,3.071578861518773
2023,607246,"Bodega, CA",CA,38.34884099999999,-122.97116400000002,1.23130575029183,NA,0.194605139465844,0.0184779011071507,2.19520386140275,NA,NA
2023,607260,"Bodega Bay, CA",CA,38.327215,-123.02923,0.10265302066155502,-0.238504340038859,-0.63105884898482,-0.53509679618782,-0.20586254090731,-0.18881237827800296,-1.696681883735257
2023,607316,"Bolinas, CA",CA,37.917725,-122.709502,0.9767312922344352,-0.37224554512475,0.31069879532503,-0.5930989940372399,-0.3912563239446721,1.31159447193136,1.242423696384163
2023,607414,"Bonita, CA",CA,32.64085,-117.065305,0.10585985209293795,-0.9955334494362978,-0.33154039745362496,0.902248793632546,-0.315762704402818,-0.08744882133640759,-0.7221767269036645
2023,607470,"Bonny Doon, CA",CA,37.043479999999995,-122.136848,-0.01185166338765439,-0.7900821606256138,-0.23566623377932405,-0.810159389508983,-0.5748054577784912,NA,NA
2023,607498,"Bonsall, CA",CA,33.274876000000006,-117.191863,0.4864182832549032,-0.639221501610795,0.2580570017510929,-0.0219700634335535,0.08454586543057502,0.39760198383243806,0.5654315692246606
2023,607512,"Boonville, CA",CA,39.01147399999999,-123.374043,1.5436076029422898,0.279022330820395,-0.7022711317807029,0.8516798175608343,-0.143421682218262,NA,NA
2023,607578,"Boronda, CA",CA,36.694632000000006,-121.67451199999999,-1.2690083960383698,0.13890099517222207,-0.481732775695106,3.0859611445698,1.2140858626737503,0.612219492175934,3.3004263228582302
2023,607596,"Borrego Springs, CA",CA,33.240962,-116.357118,0.4637593900525269,1.3262548972790498,-0.646887373328335,-0.221517229668178,-0.8361459335272972,0.875614785601556,0.9610785364093226
2023,607624,"Bostonia, CA",CA,32.818985,-116.942264,-0.391239283624828,0.394173603483943,0.440335620124689,0.7403949202453249,0.53500186333233,-0.195734806035563,1.522931917525896
2023,607652,"Boulder Creek, CA",CA,37.1341,-122.127207,0.199799200643673,-0.5699288931447491,-0.859505022707086,-0.754259594660034,-0.4054278902399581,0.5112709204438911,-1.8780512796642632
2023,607694,"Boulevard, CA",CA,32.664022,-116.289601,-1.4151776992480398,NA,-1.0824446727471198,-1.1862864609733204,-1.35328620675847,NA,NA
2023,607848,"Boyes Hot Springs, CA",CA,38.312633000000005,-122.48873799999998,0.0649479709238568,-0.18157206426671693,-0.170619002275935,1.12273315954079,0.15539948477604706,0.25683617389835106,1.2477257225963931
2023,607946,"Bradbury, CA",CA,34.153159,-117.968818,-0.4293227031988572,-2.4460404887542997,-0.44658578076916305,0.18558307399531096,-0.38656792335060314,-0.7903854890803328,-4.313319311157945
2023,607974,"Bradley, CA",CA,35.862840000000006,-120.804268,1.8889958605191,NA,-1.0824446727471198,-0.5374165909756158,-1.35328620675847,NA,NA
2023,608100,"Brea, CA",CA,33.92517800000001,-117.865111,-0.477967390673533,-0.69715071209698,-0.440166544509967,0.7458103622667479,-0.3923254759007011,0.5712241801829279,-0.6905755807315053
2023,608142,"Brentwood, CA",CA,37.935567000000006,-121.71896700000002,-0.2804124110930411,-1.2904597505349698,-0.24879608789672808,0.35634777584978705,-0.209652112544728,0.3802273952897881,-1.292745190929892
2023,608310,"Brisbane, CA",CA,37.67575000000001,-122.383302,-0.7590367284721689,-0.871428529143157,-0.0012169949798608,1.04554682192755,0.18594434706464005,0.607955429451291,0.2077643458482944
2023,608338,"Broadmoor, CA",CA,37.691424000000005,-122.48114700000002,-0.831130267895799,-1.37276999168827,-0.7910981656310829,1.1242832538807102,-0.674025556281719,0.4915479191532329,-2.053192808462928
2023,608478,"Brookdale, CA",CA,37.10573200000001,-122.110627,0.239624181905678,-0.203187714985018,-0.923653060795029,-0.8326341148521911,-0.260451278073299,NA,NA
2023,608530,"Brooktrails, CA",CA,39.443282999999994,-123.3938,-1.00211067759786,0.3718264075212041,-0.6752903485644108,0.122034864338802,0.11803584340028202,NA,NA
2023,608758,"Buellton, CA",CA,34.615497000000005,-120.194237,-1.20201101782084,-0.231218269623755,-0.833904115187692,0.23430341855031703,-0.8428997002763201,0.119089489323489,-2.7566401950348007
2023,608786,"Buena Park, CA",CA,33.857352999999996,-118.007373,-0.6292550080291771,-0.399947725795638,-0.12609674444932703,1.40825777778927,0.05460009181556871,1.0189571068839902,1.3265154982146867
2023,608954,"Burbank city, CA",CA,34.19007900000001,-118.32640499999998,-0.6606736951313049,-0.5206218887429689,0.17888429068609502,0.5879193137504409,-0.01956992192412629,1.49370742481295,1.059645523451086
2023,608968,"Burbank CDP, CA",CA,37.321106,-121.930575,-1.79729701586658,-0.8639432401324701,0.311716888943555,1.29751192258903,-0.3682672766435318,1.05598962826527,-0.3642890928447272
2023,609066,"Burlingame, CA",CA,37.589952,-122.363342,-0.8718786262847602,-1.1421858053920402,-0.452477557840136,0.4876156671858761,-0.519904597728529,-0.4886897898534671,-2.9875207099130563
2023,609346,"Byron, CA",CA,37.875634000000005,-121.642121,0.54668874455361,-1.02898381992692,-0.11264529397684904,0.22210276938869597,0.968599772339848,3.1621730567751403,3.7579352291535257
2023,609598,"Calabasas, CA",CA,34.134015000000005,-118.669128,-0.373802422261904,-1.7103294225789198,-0.4375129627417061,-0.04241572180031842,-0.173773109742946,-0.47178281262895305,-3.2096164517547474
2023,609835,"California Polytechnic State University, CA",CA,35.30698099999999,-120.667276,0.9254835289887128,NA,-1.0824446727471198,-0.577165386606564,-0.3565072553279339,NA,NA
2023,609892,"Calistoga, CA",CA,38.581408,-122.582696,-0.244065034565714,0.5704356323307022,-0.221308817137764,0.8573610335018912,0.08345089577919262,-0.16470937579773204,0.8811643341105759
2023,609948,"Callender, CA",CA,35.047972,-120.57590799999998,-1.0791385693793,-0.7400663085576997,0.8171738234108792,0.609485054556297,0.42701375087366106,NA,NA
2023,609990,"Calpella, CA",CA,39.233721,-123.19376,-0.4788463609235761,NA,-1.0824446727471198,0.0677791709868623,-0.4528178375766951,NA,NA
2023,610046,"Camarillo, CA",CA,34.221823,-119.03215400000002,0.0482714109147831,-0.934364405778202,-0.299140382515703,0.30796125371674793,-0.430238801196171,0.15537398885149106,-1.1521369360070537
2023,610074,"Cambria, CA",CA,35.552479000000005,-121.084527,1.3220455596717104,-0.286544512623344,-0.15522577236896,-0.07413700290202882,-0.2129690893157901,0.30629066183906906,0.8994598443006566
2023,610088,"Cambrian Park, CA",CA,37.256288,-121.928871,-0.272042726805678,-2.0218770176253105,-0.6394245752003219,0.18765899413824796,-0.9249833592325238,2.1835855693299604,-1.487083115395626
2023,610301,"Camino Tassajara, CA",CA,37.79087900000001,-121.885041,-0.01760346896147489,-1.7285429141639002,-0.435004749600678,0.59359844943617,-0.7114929130862649,NA,NA
2023,610345,"Campbell, CA",CA,37.280235000000005,-121.953276,-0.7500393495071019,-1.2268804772559798,-0.5218692630848071,0.7251096871516449,-0.608569654923703,0.7763077335651711,-1.6059413240547755
2023,610508,"Campo, CA",CA,32.640965,-116.474516,-0.5790679892915649,0.21546164419926303,-0.14640379648633506,-0.2932370324489229,1.1357145081646398,NA,NA
2023,610554,"Camp Pendleton Mainside, CA",CA,33.30720899999999,-117.331048,-0.720228214414227,NA,NA,0.13855092934749402,-0.8265019541874751,NA,NA
2023,610561,"Camp Pendleton South, CA",CA,33.22934200000001,-117.381542,-1.1708524147337604,NA,NA,0.8157323491768039,-0.4134052653597021,NA,NA
2023,611040,"Capitola, CA",CA,36.976083,-121.95401200000002,-0.25186980190509006,-0.20821992833836303,0.35623560813784,0.15897016557566504,-0.107378073346447,-0.6591623584678918,-0.7114243883442869
2023,611194,"Carlsbad, CA",CA,33.129284000000006,-117.284183,-0.361462842754111,-1.23508944869665,-0.433701675528025,-0.199005089973248,-0.4799775991040661,0.74587775371864,-1.96335890233746
2023,611250,"Carmel-by-the-Sea, CA",CA,36.552966999999995,-121.92196300000003,0.7296891926560751,-1.27830306222635,-0.647424440419705,-0.880621782542024,-0.569381378845379,0.181641642140305,-2.464399829237078
2023,611324,"Carmel Valley Village, CA",CA,36.500626999999994,-121.73182,0.47170141556233697,-1.0088009395332902,-0.422571245252524,-0.904803841713713,-0.7113762540378619,-0.11391733631404095,-2.689768201289093
2023,611376,"Carmet, CA",CA,38.374452,-123.071859,4.684641817029779,NA,NA,-0.0573918079222548,-1.35328620675847,NA,NA
2023,611446,"Carpinteria, CA",CA,34.385234000000004,-119.500759,-0.271605631222011,-0.4041630895397131,-0.3741017648865879,0.7178989936071801,-0.243089361424187,-0.05797066859172409,-0.6330315220570429
2023,611530,"Carson, CA",CA,33.84036699999999,-118.249574,-0.0798035407993195,-0.07919001514043622,-0.0541895070234325,1.6100954845969802,0.2613450470455879,0.649612414785024,2.307869883464404
2023,611656,"Casa Conejo, CA",CA,34.184731000000006,-118.94451700000002,-1.15260407203223,-1.24212946167743,-0.953694589472465,-0.142321338222005,-0.447880814089428,0.740859337366285,-3.197770938127273
2023,611691,"Casa de Oro-Mount Helix, CA",CA,32.763961,-116.968807,0.21287476762659596,-0.8166356102771211,-0.6427468536837142,-0.139260406466528,-0.344664860047572,0.125976702559996,-1.6044562602883434
2023,611754,"Casmalia, CA",CA,34.837588999999994,-120.531071,2.064442435764059,NA,NA,3.120452424428889,-0.896394789094187,NA,NA
2023,611768,"Caspar, CA",CA,39.363063,-123.804194,-0.15198011984900603,NA,-0.691648182774986,0.8088717696991952,-0.5509290701992872,NA,NA
2023,611796,"Castaic, CA",CA,34.477543999999995,-118.6264,-0.732967931638868,-0.5789708862407351,-0.560257491395056,0.38052905213115895,-0.5233785396298272,NA,NA
2023,611915,"Castle Hill, CA",CA,37.872955000000005,-122.057337,-0.749427306541179,NA,-1.0824446727471198,-0.6698179718135089,-1.3351914971480097,NA,NA
2023,611964,"Castro Valley, CA",CA,37.70827600000001,-122.062769,-0.4369240172482221,-1.0913096055969198,-0.3374301107167189,0.9782161640175708,-0.38197817468694606,0.8565794702714241,-0.41284627395981194
2023,611978,"Castroville, CA",CA,36.764838000000005,-121.75337399999998,0.05960632466644421,0.35870015621034296,0.2590174785151819,2.651945487063589,0.687559450630206,1.1134349721497998,5.130263869235564
2023,612132,"Cayucos, CA",CA,35.439581000000004,-120.88982799999998,0.24715744261231004,-0.26702530765206905,-0.6618134639176088,-0.61144762433638,-0.737335031093443,1.3916913251690597,-0.6387726592181311
2023,612146,"Cazadero, CA",CA,38.527831000000006,-123.109799,-0.314284926762347,0.24935923639684804,-0.355383351146686,-0.45003498929092306,-0.449456020316545,NA,NA
2023,612552,"Cerritos, CA",CA,33.867745,-118.06947099999998,0.180223157298416,-1.3203375749769304,-0.406412319551291,1.39076795445066,-0.4745431001956441,0.460577011455098,-0.1697248715196913
2023,612669,"Channel Islands Beach, CA",CA,34.161093,-119.225277,-0.7726342784141812,-0.7564424433830881,-0.6152588925517821,-0.5344215875571698,-0.7865930548350739,0.6405390260177359,-2.8248112307235593
2023,612734,"Charter Oak, CA",CA,34.10248300000001,-117.856315,-0.61587474617553,0.10374555748687404,0.31017247035261103,1.30673197679868,0.12005700318955298,0.41739698289432,1.642229244546508
2023,612902,"Cherryland, CA",CA,37.67915900000001,-122.103755,-0.145697040785757,-0.00169505056072172,0.12271140759671302,1.87241389051831,0.6948093509085801,0.42342030059919605,2.9659628582763204
2023,613214,"Chino Hills, CA",CA,33.942969000000005,-117.725648,-0.502584262260591,-1.12450966041724,-0.31329978429538496,1.1637615887145298,-0.31200840520640405,0.3353471336772049,-0.7532933897878853
2023,613364,"Chualar, CA",CA,36.57111300000001,-121.510295,0.00592824748626983,0.6992720710188199,1.43886098192664,3.26032265033308,0.735449450829527,0.20448642200166603,6.344319823596003
2023,613392,"Chula Vista, CA",CA,32.62767,-117.01517,-0.46942146322761213,-0.41280584882249305,-0.128878831361635,1.4012536291454198,0.326555257744467,0.8491109730745791,1.5658137165527255
2023,613560,"Citrus, CA",CA,34.110456000000006,-117.89348699999998,-0.389705124227641,-0.35052544486152687,-0.13970273169202402,1.4034314924541391,0.5421045936013711,0.9881464078950292,2.0537491931693475
2023,613756,"Claremont, CA",CA,34.124925000000005,-117.713923,-0.00672405871133953,-0.9059248581235982,-0.395360308501002,0.24224916481272907,-0.46470569459132793,0.9771128657331108,-0.5533528893814278
2023,613882,"Clayton, CA",CA,37.94032,-121.930076,-0.182019054930994,-2.15999344984564,-0.8788146672943201,-0.36811943333173497,-0.63923622483029785,-0.159511524184889,-4.387694354417876
2023,614008,"Cleone, CA",CA,39.49015400000001,-123.775692,-0.7928042657523068,0.2975719964828731,-1.0824446727471198,0.0133444604340757,1.46242886528132,NA,NA
2023,614190,"Cloverdale, CA",CA,38.79614300000001,-123.01506000000002,-0.09783127477511258,0.0553703533104319,-0.572018286825791,0.227312422558145,-0.2230468908874441,0.43666100725282303,-0.17355266936694774
2023,614232,"Clyde, CA",CA,38.02540000000001,-122.02806,0.472783633139188,0.172866318983846,-1.0824446727471198,0.5388652290030761,-0.7141488799379739,-0.3807430052403619,-0.9928213767993456
2023,614736,"Colma, CA",CA,37.676698,-122.452692,-0.551234328329883,-0.6492270323746381,0.29726039355930506,1.618420354699,-0.18302213189772204,0.604030474638937,1.136227730294999
2023,614974,"Commerce, CA",CA,33.994523,-118.149952,0.25958799058365106,0.452696631490944,0.576652105623968,2.6084851253312697,0.7118700638826039,0.489013410620512,5.098305327532949
2023,615030,"Comptche, CA",CA,39.26513400000001,-123.589715,-0.06118021481537761,NA,NA,-1.7363797127505398,0.19381146493644005,NA,NA
2023,615044,"Compton, CA",CA,33.89404699999999,-118.227469,-0.351304888916361,0.30091867258880106,0.975506796829492,2.2215775966206106,0.954135580990131,1.36120811386765,5.462041871980324
2023,616000,"Concord, CA",CA,37.972186,-122.00160700000002,-0.5549280345873451,-0.483035403032109,-0.236075305763083,0.9409398803449912,-0.12466265533139904,0.410034968570286,-0.04772654979865903
2023,616378,"Coronado, CA",CA,32.657624999999996,-117.156539,0.21209570611590903,-1.61664838305553,-0.65203176135381,-0.410291174425655,-0.760574870909045,-0.2552613385939339,-3.4827118222220648
2023,616434,"Corralitos, CA",CA,36.98423,-121.789432,-0.0678818434822236,-1.8036566378576095,-0.7852386462077469,-0.561440275160731,-0.557950691170068,1.5877660439314698,-2.1884020499469097
2023,616462,"Corte Madera, CA",CA,37.93184599999999,-122.507738,-0.536385653207165,-1.8776834660692,-0.5115786775889891,-0.21526331135695403,-0.7622428852354219,-0.3590106474735059,-4.2621646409312355
2023,616532,"Costa Mesa, CA",CA,33.66590500000001,-117.912336,-1.0802023790382902,-0.5568929588305771,-0.187013466068982,0.6272420478321509,-0.04449490444873591,1.0213489171308,-0.22001274342363444
2023,616560,"Cotati, CA",CA,38.328492,-122.710049,-0.89205734793549,-0.247316171134644,-0.33271830137122,-0.0167444527765883,-0.5202864426552419,0.49724110296326296,-1.5118816129099213
2023,616580,"Coto de Caza, CA",CA,33.597037,-117.586484,-0.4502025163840301,-2.5707944508510603,-0.6542495282228711,-0.6474194542179489,-0.863194569879522,-0.7065482204036639,-5.892408739959096
2023,616728,"Covelo, CA",CA,39.800186999999994,-123.252601,0.72870747710137,1.4836646786908696,3.49974740676246,1.9896114572306296,2.5716106997164196,1.58154385387035,11.854885573372098
2023,616742,"Covina, CA",CA,34.090475000000005,-117.882143,-0.6761483509999019,-0.15786891583671803,-0.0326434204649248,1.2251654002125698,0.125821408076526,0.7650560973287891,1.24938221831634
2023,617022,"Crescent City, CA",CA,41.76451400000001,-124.200779,1.1498228929190797,1.20434727696254,0.6232324362988361,0.42635647246872505,1.6368471303295402,-0.05587290967004999,4.9847332993086715
2023,617106,"Crest, CA",CA,32.80002,-116.867078,0.527999709506608,NA,-0.384895545632966,-0.499575410389138,-0.16704729067261304,0.629055358262691,NA
2023,617232,"Creston, CA",CA,35.51709699999999,-120.518136,NA,NA,NA,NA,NA,NA,NA
2023,617274,"Crockett, CA",CA,38.051919000000005,-122.22012700000002,-0.132735042213277,-0.539271225792487,0.44114933600824,-0.28578859169518805,-0.164867424540552,0.5498124566005922,-0.1317004916326719
2023,617498,"Cudahy, CA",CA,33.964003000000005,-118.182561,-0.293911554035201,0.7598047348169149,2.1778115725429807,2.9822850331293496,1.84388244369027,-0.08372927820498272,7.386142951939331
2023,617568,"Culver City, CA",CA,34.00582,-118.396781,-0.7467044845190781,-0.957781201203802,-0.33159950323321696,0.5177786506381432,-0.4028289783509241,0.8724459237930721,-1.048689592875806
2023,617610,"Cupertino, CA",CA,37.319399999999995,-122.044957,-0.362450112030699,-1.8170293350761295,-0.6383530793393459,1.04504228092144,-0.8309903975060431,-0.23398882557125003,-2.837769468602028
2023,617722,"Cutten, CA",CA,40.76567500000001,-124.144566,0.33812555275628386,-0.0921070977038222,-0.6516565697555209,-0.36186685767344506,-0.17446723149284404,0.586630814050725,-0.3553413898186233
2023,617727,"Cuyama, CA",CA,34.931056999999996,-119.61488,-0.25501151132708405,NA,NA,0.702380526540777,0.04578861478015909,NA,NA
2023,617750,"Cypress, CA",CA,33.818476999999994,-118.038307,-0.48522544301957504,-0.9089946319850972,-0.3193889234152791,1.0251915954342796,-0.3993028953959921,0.699913259431497,-0.3878070389501668
2023,617918,"Daly City, CA",CA,37.700835000000005,-122.500791,-0.436096430961696,-0.81209398131401,-0.272365822729377,1.88160509568952,-0.279109798256575,0.5844405611039869,0.6663796235318488
2023,617946,"Dana Point, CA",CA,33.475452000000004,-117.693087,-0.26251808926850706,-1.37647619510788,-0.313544411137569,-0.307377856093402,-0.441477472713287,0.5160832867622268,-2.185310737558418
2023,617988,"Danville, CA",CA,37.812141,-121.969822,-0.35765567106780904,-2.2963357342381796,-0.693202477988494,-0.33076577221755893,-0.756473546620445,-0.457707762353276,-4.892140964485763
2023,618086,"Davenport, CA",CA,37.02159,-122.194305,-0.8261005490822099,NA,-0.7808562206906189,1.0093483539256098,0.30585906369373,NA,NA
2023,618153,"Day Valley, CA",CA,37.02543900000001,-121.85593099999998,0.9731147196421688,-0.232114211706664,-0.6861514446628398,-0.29415603849616595,-0.6783940283046469,-0.38873983645380994,-1.3064408399819578
2023,618324,"Deer Park, CA",CA,38.53517600000001,-122.470152,-0.9692956104061092,-0.6439830681226307,-1.0824446727471198,-0.8289646765111601,-0.717471569259579,0.8339140486091241,-3.4082455484374745
2023,618352,"Del Aire, CA",CA,33.916712000000004,-118.369292,-0.348669994813745,-1.0646017813291595,0.0759131167176917,1.13624128300189,-0.11281807266136198,2.0343547140830003,1.7204192649983152
2023,618422,"Del Dios, CA",CA,33.075682,-117.11903599999998,-0.9411504093201932,-0.6078812161080992,-1.0824446727471198,-0.32040102740272997,-0.21265840823644505,NA,NA
2023,618506,"Del Mar, CA",CA,32.962852000000005,-117.262438,-0.17326244162196305,-1.62447098608407,-0.879210324621298,-0.8942010235643951,-1.0196211628351897,-1.2291306220605098,-5.819896560787425
2023,618590,"Del Monte Forest, CA",CA,36.583834,-121.946714,1.1516940991139295,-2.2635229270272905,-0.7483583929012279,-0.7827647458770197,-0.760433826930193,-0.6939325942902068,-4.097318387912008
2023,618688,"Del Rey Oaks, CA",CA,36.582501,-121.829797,-0.09144112031595518,-1.1713887320734,-0.14684594112371,-0.295961648126868,-0.2838319355645141,-0.0606563692228419,-2.0501257464272893
2023,618940,"Descanso, CA",CA,32.869571,-116.627874,-0.728610271085722,-0.923689258146364,-0.6465504651636079,-0.4234979607839261,-1.2079088417129598,NA,NA
2023,619052,"Desert View Highlands, CA",CA,34.590259,-118.153537,0.129321109246406,-0.07675886128631498,-0.920214835736918,2.29874526068555,0.0470283798744982,1.1593509419339405,2.6374719947171616
2023,619150,"Diablo, CA",CA,37.840808,-121.956456,0.31672798372166805,NA,-0.641141083705861,-0.5864080322826649,0.122937983986908,-1.5478031236717402,NA
2023,619192,"Diamond Bar, CA",CA,34.001573,-117.817601,-0.14113117246671,-0.8477994612375812,-0.04110674981064771,1.9355820223046296,-0.27468980153500505,0.557443805501211,1.1882986427558968
2023,619262,"Dillon Beach, CA",CA,38.243488,-122.955955,0.5064325015231339,NA,NA,-1.31274820422292,-1.35328620675847,NA,NA
2023,619339,"Discovery Bay, CA",CA,37.90517300000001,-121.606277,-0.120210557379988,-1.5533047946891296,-0.44070085951839993,-0.2944453023933661,-0.196777077448497,-0.594403458210124,-3.199842049639505
2023,619402,"Dixon, CA",CA,38.447512,-121.82422300000002,-0.723289620054098,-0.18911848849924104,-0.0038529026077965,0.735618741585192,-0.24472808618007105,0.5101951720137771,0.08482481625776248
2023,619766,"Downey, CA",CA,33.938237,-118.13085599999998,-0.4323012771603191,-0.2095490780723211,-0.0921883551934576,1.6293875909971,0.14017107525136996,0.6286414360178512,1.6641613918402234
2023,619990,"Duarte, CA",CA,34.16097200000001,-117.950441,-0.0239756995748448,-0.3520028528751609,-0.231789909650316,1.4493900486623597,-0.059984190978126,1.3184084207335105,2.1000458163174223
2023,620018,"Dublin, CA",CA,37.71615100000001,-121.89622400000002,-0.964457436208325,-1.72944518875984,-0.5608663668455048,0.8785427383040871,-0.6910800041859009,1.0274343423899996,-2.0398719153054836
2023,620574,"Eastern Goleta Valley, CA",CA,34.443913,-119.785477,0.21390762411656003,-1.36340390552518,-0.586971159912179,-0.07226333823688,-0.5271233997789408,NA,NA
2023,620598,"East Foothills, CA",CA,37.382667,-121.81377999999998,-0.593679357457836,-1.86837449148556,-0.7534201412408629,0.902905914532364,-0.465740070729559,0.32676228731906803,-2.451545859062386
2023,620802,"East Los Angeles, CA",CA,34.031506,-118.168567,-0.181793940986739,0.401843571996391,0.8769820152890241,2.62271342791051,1.2318592776235098,1.2307054968305,6.182309848663196
2023,620956,"East Palo Alto, CA",CA,37.467780000000005,-122.13254999999998,-0.8670667888423258,-0.713071784513551,0.2898585286093441,1.9323111981926997,0.24596394651654,1.8656049395601,2.753600039522807
2023,620984,"East Pasadena, CA",CA,34.136798000000006,-118.077535,-0.02858268496936449,-0.742824671744088,-0.38731160980174706,1.5445991679033,-0.406506169955996,0.452151091062926,0.4315251224950304
2023,621034,"East Rancho Dominguez, CA",CA,33.894833999999996,-118.195587,-0.15667566351085596,0.40086266286399014,1.22247492676204,2.3005211297182897,1.36870174186527,NA,NA
2023,621061,"East Richmond Heights, CA",CA,37.945080999999995,-122.313907,-0.9025478722038732,-0.739127686066884,-0.7051323072986398,0.0564376299929001,-0.20034426512676204,1.60417626321974,-0.8865382374835189
2023,621096,"East San Gabriel, CA",CA,34.119645999999996,-118.080235,-0.42033091502072906,-0.515853079792597,0.0189109816680587,2.24046789610693,-0.0366290723628814,0.92498183370486,2.211547644303642
2023,621292,"East Whittier, CA",CA,33.924373,-117.988726,-0.44598022494222705,-0.28180651229396103,-0.570118152235849,0.6640730267317079,-0.481636779418588,NA,NA
2023,621565,"Edna, CA",CA,35.210786000000006,-120.605967,1.16104853751561,NA,-1.0824446727471198,-0.44087431904991303,-1.35328620675847,NA,NA
2023,621712,"El Cajon, CA",CA,32.801671999999996,-116.960465,-0.25502832075295506,0.117907624584645,1.1306500743002703,1.0189447839041998,0.7707347371330151,0.5852167919136748,3.36842569108285
2023,621796,"El Cerrito, CA",CA,37.91963,-122.302516,-0.6257699276931411,-1.1330553091210702,-0.47368613870582105,0.651303888321506,-0.4482526525207719,1.61914251880817,-0.4103176209111283
2023,621894,"Eldridge, CA",CA,38.333887,-122.506518,-0.5319644094491901,-0.28534654623709005,-0.39218868529593703,-0.03996676910309559,0.3702753281998681,-0.21301589463758203,-1.092206976523027
2023,621916,"Elfin Forest, CA",CA,33.081232,-117.177443,-0.6530246617812149,NA,-0.746244751226975,-0.3239479844336521,-0.803046875728168,NA,NA
2023,621936,"El Granada, CA",CA,37.52092000000001,-122.47082,-0.6591258760630312,-1.15769890438713,-0.924471507404913,-0.6961629155922676,-0.16568064737906296,-0.18003443273632305,-3.783174283562728
2023,621964,"Elizabeth Lake, CA",CA,34.656487999999996,-118.37984699999998,-0.08060600773201271,0.13622759267970597,-0.8915442753469119,-0.5326475005101791,-0.4820254815723691,NA,NA
2023,622034,"Elkhorn, CA",CA,36.810672999999994,-121.71869900000002,-0.31236537714805107,-0.757504991494292,-0.8828016129350681,0.3679423128610069,-0.14090794160930403,-0.17623778588210406,-1.9018753962078123
2023,622146,"Elmira, CA",CA,38.352328,-121.907719,-1.5043641112309498,NA,-1.0824446727471198,-0.10365109780101002,-1.35328620675847,NA,NA
2023,622230,"El Monte, CA",CA,34.074633000000006,-118.02913599999998,-0.134643519464415,0.29318298912554513,1.0735895750093098,2.8757491596914595,0.9560561964884392,1.49629235132202,6.560226752172358
2023,622300,"El Paso de Robles (Paso Robles), CA",CA,35.627885,-120.650261,-0.175670089692974,-0.211801502735459,0.271986412671076,0.562399446772045,0.100531482704595,1.2146642448611795,1.7621099945804628
2023,622370,"El Rio, CA",CA,34.24528,-119.156865,-0.478528848921932,-0.307942755993185,1.4546139451324198,1.6204959934762202,1.11699645469158,1.14137546938431,4.547010257769413
2023,622412,"El Segundo, CA",CA,33.910366999999994,-118.425079,-1.16772051697924,-1.0357326875806896,-0.5416634257224789,-0.16540309752657403,-0.6401006376519741,1.26076543938891,-2.2898549260720467
2023,622454,"El Sobrante, CA",CA,37.980052,-122.306811,-0.24280699198583103,-0.48748853533133607,-0.06946935276940748,1.1125108692536505,0.059362593381259,0.922237800636672,1.2943463831850068
2023,622510,"El Verano, CA",CA,38.297465,-122.49154400000002,0.270899080757782,-0.7587614305190421,-0.6764720528651359,0.0529281010911461,-0.29865570685525605,1.0745831222258402,-0.33547888616466576
2023,622587,"Emerald Lake Hills, CA",CA,37.46566,-122.265351,-0.864665742996568,-2.27138494181883,-1.02297652727119,-0.5110217250762928,-1.1479649405156898,-1.2198480518444998,-7.03786192952307
2023,622594,"Emeryville, CA",CA,37.838473,-122.301682,-1.66910126316893,-0.41258146324580913,-0.217662826016246,0.6974721347459316,-0.401867002379268,1.47977886248167,-0.5239615575826516
2023,622678,"Encinitas, CA",CA,33.050632,-117.263616,-0.527141989944788,-1.33151060121572,-0.350327789170597,-0.331891087227824,-0.5499717535150561,1.51537688471303,-1.5754663363609551
2023,622804,"Escondido, CA",CA,33.13305300000001,-117.074043,-0.36779367818314096,-0.100684806657676,0.244172371738996,1.20254579034667,0.19956923605994203,0.6831489682375509,1.8609578815423415
2023,623000,"Eucalyptus Hills, CA",CA,32.885177000000006,-116.944983,0.08855476109511161,-0.7310376396547711,-0.6820295374483001,-0.463549972468265,-0.838514124068528,NA,NA
2023,623042,"Eureka, CA",CA,40.793401,-124.155246,-0.25998964021395304,0.6778958920691752,0.316623691866067,-0.118806370786018,0.45205340716247006,0.7695102719364119,1.837287252034153
2023,623150,"Fairbanks Ranch, CA",CA,32.991596,-117.186611,0.6386743375846351,NA,-0.36509159850582096,0.18766245157446704,-0.5877783013773229,-1.5679627734695398,NA
2023,623168,"Fairfax, CA",CA,37.988532000000006,-122.595208,-0.705501846259228,-0.998550433871399,-0.0445482276554445,-0.4123468710588951,0.14356301908047003,0.18971768255163604,-1.8276666772128605
2023,623182,"Fairfield, CA",CA,38.259826999999994,-122.03245699999998,-0.280935302508843,-0.539443692746063,-0.02491115494527069,1.0407584999427202,-0.01465929284927899,0.414770064582439,0.5955791214757035
2023,623196,"Fairhaven, CA",CA,40.788293,-124.201421,-1.03642842988065,0.57609284033761,-0.912907960185677,-1.0848061249633003,0.5965709051131088,NA,NA
2023,623350,"Fairview, CA",CA,37.67766699999999,-122.044434,-0.2873536477018331,-1.1456431364665802,-0.8035333749956167,0.6766817771377279,-0.594181229273524,0.5282019691709768,-1.6258276421288491
2023,623462,"Fallbrook, CA",CA,33.374235,-117.220375,0.09142556339627252,-0.13912773257322603,0.3382711285984809,1.06611682092738,0.170723938162585,0.5753385469272368,2.1027482654387293
2023,623826,"Felton, CA",CA,37.039221000000005,-122.080473,-0.4828269474166931,-0.5201915581029439,-0.86988736711737,-0.6666199300269569,-0.7923122142524348,-0.15721042447051703,-3.489048441386916
2023,623910,"Ferndale, CA",CA,40.579891,-124.26190900000002,1.0672171006718405,0.4318949392722941,-0.06102874892372589,0.06240147172924391,0.117860766908855,0.11338315019753098,1.7317286798560385
2023,623973,"Fetters Hot Springs-Agua Caliente, CA",CA,38.327504000000005,-122.487137,-0.767047571490096,-0.19555938501509204,0.29409039076489407,1.4145261006890597,6.560917227496078e-4,1.84693073595948,2.5935963626309952
2023,624008,"Fieldbrook, CA",CA,40.972958000000006,-124.028586,0.02896628091947889,-0.20441649107932805,-0.531420350203273,-0.947472609346394,-0.5098946655254181,NA,NA
2023,624022,"Fields Landing, CA",CA,40.72423600000001,-124.21860300000002,0.04869777816070789,NA,NA,-0.42119895104428606,2.540650033093229,NA,NA
2023,624092,"Fillmore, CA",CA,34.398423,-118.916096,-0.365712906774223,-0.0418937487233388,-0.5143251237383389,1.2129143811244596,-0.08524793692132779,0.783663646278815,0.989398311246046
2023,624477,"Florence-Graham, CA",CA,33.96815900000001,-118.24466700000004,-0.12604732247489403,0.42836774170211905,1.2455654903877995,3.4169601614694396,1.7477253546965998,0.8809323987472397,7.593503824528304
2023,624960,"Forestville, CA",CA,38.482491,-122.889884,-0.17473053971711203,-0.23753568453713905,-0.4749991513988181,-0.0463543943785481,-0.33365321246946095,0.8483735971035611,-0.4188993853975171
2023,625058,"Fort Bragg, CA",CA,39.439803000000005,-123.80175699999998,0.618933129673097,0.7379169057625709,0.06921586958575118,0.7645052945157841,0.332840973303385,0.5745175603811149,3.097929733221703
2023,625086,"Fort Dick, CA",CA,41.869526,-124.167206,0.992644891436064,NA,-0.8849908180348872,-0.8118907081580491,0.5405133073645478,NA,NA
2023,625093,"Fort Hunter Liggett, CA",CA,35.99232900000001,-121.23487,NA,NA,NA,NA,NA,NA,NA
2023,625296,"Fortuna, CA",CA,40.587084,-124.142161,0.20921840457109608,0.703426913307586,0.450570117006206,0.0439103771430857,0.640844485386406,0.11155471723976897,2.159525014654149
2023,625338,"Foster City, CA",CA,37.564820000000005,-122.250782,-0.5949822188410389,-1.6725659237543802,-0.6018976676930161,1.0799633331573295,-0.49658921774704706,0.0163619796111544,-2.2697097152669983
2023,625380,"Fountain Valley, CA",CA,33.710582,-117.951129,-0.0347352172981516,-1.0684154135755102,-0.405151907064515,0.886454274267785,-0.17789430798292402,0.7258384965592081,-0.07390407509410771
2023,625576,"Freedom, CA",CA,36.940245,-121.795245,-0.3306940321210569,-0.00741939536136309,0.0710083630572604,1.24036598046131,-0.5421586533590912,-0.32091657893189907,0.11018568374516022
2023,626000,"Fremont, CA",CA,37.501048,-122.083934,-0.67575604338361706,-1.34336917750876,-0.4209056873741811,1.28183204050078,-0.5204573868998069,0.8719768936123911,-0.806679361053194
2023,627080,"Fruitdale, CA",CA,37.311710999999995,-121.935765,-1.2654676304990595,-1.59900993872225,0.46380174882613495,0.351434886113278,-0.6212560159665179,1.5601247222289898,-1.110372228019425
2023,628000,"Fullerton, CA",CA,33.885714,-117.92802500000002,-0.44042680923772304,-0.5379724863480311,0.0151331504135079,1.18253442239412,0.124189578904665,0.943977286030376,1.2874351421569148
2023,628014,"Fulton, CA",CA,38.493709,-122.77341699999998,1.1586925597305502,NA,0.17427107358292102,-0.267200890221094,-0.7833028540287689,NA,NA
2023,628154,"Garberville, CA",CA,40.100306,-123.794315,-0.250928647208122,NA,2.4108773305903495,0.03019413334220409,1.6887359216525804,NA,NA
2023,628168,"Gardena, CA",CA,33.894417000000004,-118.30752200000002,-0.48281779494856414,0.12818156312384493,0.13541471815275102,2.0109433354683097,0.242856874570847,0.9410698155514972,2.9756485119186857
2023,628210,"Garden Farms, CA",CA,35.415782,-120.614034,1.00154885467631,NA,2.4025438998122897,-0.6031042838228778,1.69721455197596,NA,NA
2023,629000,"Garden Grove, CA",CA,33.77878200000001,-117.960472,-0.38098393422554205,-0.174162100473016,0.35363464235523495,2.1987461249900497,0.486446540730836,1.03811880713218,3.5218000805097427
2023,629070,"Garey, CA",CA,34.88582099999999,-120.31375,-0.7106022365594161,NA,-0.5047541166952341,-0.998685834136202,0.33043084769899395,NA,NA
2023,629154,"Gasquet, CA",CA,41.836075,-123.976031,1.84616554415564,NA,2.1671976142291203,-0.6675800210207657,0.970759518398328,NA,NA
2023,629420,"Geyserville, CA",CA,38.717314,-122.90342300000002,-0.0261816391236073,-0.2125119075694601,-0.25973806844037595,0.44470119649383094,-0.46043990816224806,NA,NA
2023,629504,"Gilroy, CA",CA,37.006407,-121.58532099999998,-0.5535990424119951,-1.1023020846027602,-0.290036223502283,1.2921876446302103,0.116519490243344,0.17812314960481096,-0.35910706603867304
2023,630000,"Glendale, CA",CA,34.181393,-118.24583,-0.3448709641572551,-0.5890148173843751,0.4191144308342731,1.26690753310502,0.185324441868621,0.504342087116471,1.441802711382755
2023,630014,"Glendora, CA",CA,34.144963999999995,-117.847804,-0.18252860184963196,-0.7469168812934509,-0.3280272697294601,0.445156923458626,-0.33384953750125296,0.997627010315921,-0.14853835659924888
2023,630028,"Glen Ellen, CA",CA,38.355323000000006,-122.543306,-0.83496284327392,-0.23041960685227905,-0.678303491204072,-1.0699273520732997,0.047112144657496,0.5871420779222308,-2.179359070823844
2023,630378,"Goleta, CA",CA,34.435438000000005,-119.858964,-0.910931288307988,-0.6534372193660489,-0.3614869749278821,0.6432774858855569,-0.1492158341723981,-0.274372146273233,-1.7061659771619933
2023,630392,"Gonzales, CA",CA,36.50597900000001,-121.44291800000002,-0.32494240365894805,0.2838744372244772,-0.344836274731897,2.5504904089074203,0.26623797539954214,0.619954197240856,3.0507783403814503
2023,630703,"Granite Hills, CA",CA,32.803278999999996,-116.905608,-0.123452812118303,-1.6819819119047,0.148791428634706,-0.46464519073104993,0.06836040877205399,0.7462805413821427,-1.3066475359651502
2023,630812,"Graton, CA",CA,38.437517,-122.865988,-0.711630555010484,-1.07968557326584,1.4561777473051498,0.5227712609597841,-0.0355239033796541,1.4666746320860298,1.6187836086949854
2023,630994,"Greenfield, CA",CA,36.32339,-121.24475,-0.09369530653168794,0.236820533250101,0.26482526244065807,3.2074651041417095,0.32213443818362997,1.4077904549735298,5.345340486457941
2023,631092,"Green Valley (Los Angeles County), CA",CA,34.617415,-118.405023,0.3854197625286321,0.132926003329952,-0.5727148016739981,-1.13053480092835,0.32325700586945605,NA,NA
2023,631099,"Green Valley (Solano County), CA",CA,38.263842,-122.162496,1.21617706903846,NA,-0.24901884532632507,-0.6548808185365611,-0.9823446597439048,-0.929110419987895,NA
2023,631393,"Grover Beach, CA",CA,35.120888,-120.619664,-0.404367252238703,0.105987949460877,0.29586319550807105,0.408875047439438,0.253772905926226,0.7713784465774721,1.4315102926733811
2023,631414,"Guadalupe, CA",CA,34.964929000000005,-120.573127,-0.266209070155827,0.3372309444104149,1.6943051432625402,2.68842831157235,1.8322743530945,1.2194218354720396,7.505451517656018
2023,631470,"Guerneville, CA",CA,38.517165,-122.989897,-0.2825872944911729,0.04751738857125199,-0.5794247989898991,-0.643458202240935,0.151350907346107,0.629579041699412,-0.6770229581052359
2023,631596,"Hacienda Heights, CA",CA,33.99585300000001,-117.973023,0.05671120848656359,-0.6876477980674509,0.16953993501236805,1.87286075314876,0.00839424335866984,0.714346612471566,2.1342049544104764
2023,631708,"Half Moon Bay, CA",CA,37.467319,-122.440485,-0.18021925779687104,-1.13286953383264,-0.557830153366561,0.5558219505582421,-0.55739713244525,-0.228824514162315,-2.101318641045395
2023,632044,"Harbison Canyon, CA",CA,32.827273999999996,-116.83807,-0.21480152716755796,-0.900380802159147,-0.6835966924873689,-0.46750230513727703,-0.163363044625195,0.132841015217237,-2.296803356359309
2023,632212,"Harmony Grove, CA",CA,33.100717,-117.137992,-1.8086850645786403,-2.14663097972207,-0.723256722405085,0.7926605290615089,-1.17233911065381,NA,NA
2023,632340,"Hartley, CA",CA,38.42039300000001,-121.95084199999998,0.4349369931553631,0.119718231697599,-0.8957929022158881,-0.7794452711041501,-0.305322354627375,NA,NA
2023,632385,"Hasley Canyon, CA",CA,34.481598999999996,-118.66668900000002,0.04741867443848911,NA,-0.258767511220467,-0.42584465937610005,0.8133236911394721,NA,NA
2023,632506,"Hawaiian Gardens, CA",CA,33.830481999999996,-118.073451,-0.21925015618425403,0.468258810326193,0.797090713357188,2.3678698658581694,1.2888131361562902,0.81196655092559,5.514748920439176
2023,632548,"Hawthorne, CA",CA,33.914775,-118.348083,-0.833526843603653,0.04827262084741431,0.6609678239685058,1.9279916699132296,0.894857603621249,1.7812387051724796,4.479801579919226
2023,633000,"Hayward, CA",CA,37.62865900000001,-122.102405,-0.6561350061077761,-0.469652786597736,-0.04020976009366948,1.83482610183011,0.15294773362735106,0.822333511618425,1.6441097942767045
2023,633056,"Healdsburg, CA",CA,38.62280000000001,-122.865084,-0.15242496914289902,-0.6533229387036209,-0.03992684337117311,0.364978186566353,0.19641419289485304,1.1692289926993995,0.8849466209429128
2023,633308,"Hercules, CA",CA,38.021427,-122.288929,-0.4154827458146492,-1.38643543819299,-0.6221521614326526,1.1376190126982,-0.5111182880553279,0.417246976748358,-1.3803226440490617
2023,633364,"Hermosa Beach, CA",CA,33.865275000000004,-118.396297,-0.974758269839386,-1.1905825581714702,-0.64946441732107,-0.523324319344679,-0.5983014231573079,0.47460957890902905,-3.461821408924884
2023,633518,"Hidden Hills, CA",CA,34.163744,-118.661204,0.203428172211334,-2.9949579219800397,0.024055164321127,-1.06921749241189,-0.31335048128299803,-1.75732057680164,-5.907363135944107
2023,633532,"Hidden Meadows, CA",CA,33.22363400000001,-117.119826,0.8798385920576721,-0.6888048423938742,-0.4599744042422631,-0.13335612937535396,-0.08344747216552671,0.299691981443938,-0.18605227467540783
2023,633632,"Highlands, CA",CA,37.520055000000006,-122.345924,-0.0447515149732277,-2.19653256456077,-0.6741817800292528,-0.140893490618515,-0.8015771390206029,NA,NA
2023,633798,"Hillsborough, CA",CA,37.557241,-122.358695,0.05354353717056939,-2.9949579219800397,-0.733511449393896,-0.0276577297956689,-0.840082199139387,-1.8746911160570696,-6.417356879195492
2023,633935,"Hiouchi, CA",CA,41.793664,-124.06611300000002,1.7599842963915997,NA,-0.6341781107202609,-0.8976254084330302,0.21277270550147304,NA,NA
2023,634540,"Hoopa, CA",CA,41.079639,-123.69766,1.10330352179245,2.3467071439842697,1.4699492069970697,1.07005367832048,1.38623972727288,NA,NA
2023,634652,"Hopland, CA",CA,38.96883,-123.116899,0.142043740920754,0.380715962031921,-0.211677690307186,1.14059213839714,0.5110514996616761,NA,NA
2023,634928,"Humboldt Hill, CA",CA,40.72231600000002,-124.19738099999998,0.6283920210821529,0.7442678755367649,0.28245940921932206,0.5710542724597591,-0.09957915441028212,0.6065037729528587,2.733098196840575
2023,636000,"Huntington Beach, CA",CA,33.69800700000001,-118.003834,-0.469333220134204,-0.8314848972048251,-0.358522220425451,0.0759166464653515,-0.33914752683807686,0.5722639772020339,-1.3503072409351715
2023,636056,"Huntington Park, CA",CA,33.979248,-118.217438,-0.350926519080031,0.520656482207132,1.0106363108451395,3.0909977872857906,1.5974475841058602,0.47026539224455904,6.33907703760845
2023,636126,"Hydesville, CA",CA,40.557875,-124.08225,1.40918001509826,0.7767416240150351,0.33505445767463,-0.910818449576232,0.22653541684329903,0.21292212506720604,2.049615189122198
2023,636294,"Imperial Beach, CA",CA,32.56914000000001,-117.114921,-0.729501889568537,0.0686623886223319,0.31440017029457606,1.11300759834498,0.6392600898434129,1.71042262466931,3.1162509822060738
2023,636420,"Indianola, CA",CA,40.809963999999994,-124.07844699999998,0.5495409267445911,NA,-0.347865337059288,-1.16395835466864,0.0859731228258208,NA,NA
2023,636490,"Industry, CA",CA,34.02623200000001,-117.940327,0.912198499773315,NA,-0.844320513008956,1.56061977696286,1.85688134212477,NA,NA
2023,636546,"Inglewood, CA",CA,33.956067999999995,-118.344274,-0.623079978735098,0.0350633522252242,0.552439591941189,1.96905071098703,0.7657585949761999,1.5638162115489298,4.263048482943475
2023,636613,"Interlaken, CA",CA,36.950602999999994,-121.73751900000003,-0.17960689965702503,-0.49464825351592,-0.18633456355324296,2.0343479090494694,0.12473883441566,0.146208039885817,1.4447050666247585
2023,636616,"Inverness, CA",CA,38.082796,-122.85494300000002,0.8240116963549661,-0.643806063099744,-0.48994785503684407,-0.7884946713346419,-0.07641264163395821,1.3323154594937603,0.1576659247435382
2023,636770,"Irvine, CA",CA,33.67839900000001,-117.771254,-0.754284034932597,-1.1712163295675502,-0.0833670940078956,1.01761530877401,-0.28967036132924817,0.8094093837910199,-0.4715131272722612
2023,636826,"Irwindale, CA",CA,34.111855,-117.96361400000004,-0.22429248616556005,-0.178683022372353,-0.23789401843207303,1.62127239815192,-0.0462176125610214,0.9657505097187448,1.8999357683396576
2023,636868,"Isla Vista, CA",CA,34.414116,-119.857874,-0.514359137012717,-0.0438355635207342,-0.0411228717555802,0.06049694439970141,3.1306466957899697,0.175804422003109,2.7676304899037487
2023,637022,"Jacumba, CA",CA,32.636478000000004,-116.190706,-0.11349185363664,NA,2.7947612881307404,0.45161398509959105,3.37421285059197,NA,NA
2023,637120,"Jamul, CA",CA,32.718410000000006,-116.870862,0.190421319754925,-1.85008866645931,-0.622593073084461,-0.0101688890472308,-0.5841404300358811,0.137840279602248,-2.73872945926971
2023,637274,"Jenner, CA",CA,38.459034,-123.127467,-3.3071629351921996,NA,NA,-1.7363797127505398,-1.35328620675847,NA,NA
2023,637582,"Julian, CA",CA,33.073501,-116.588883,0.797907373233132,0.48686240047753104,-0.7950943124734912,-0.22636545538682304,-0.6900710181038942,0.7828655451419068,0.3561045328883614
2023,638086,"Kensington, CA",CA,37.910303000000006,-122.282746,-0.5133033591728179,-2.10857682931682,-0.800256055429466,-0.23771848595093903,-0.4771854779847801,0.5441325856898569,-3.592907622164966
2023,638114,"Kentfield, CA",CA,37.935426,-122.558794,0.04767107065986299,-1.64616319003362,-0.8529552123590993,-0.34410194468036187,-0.7605262740656589,-1.48470317433033,-5.040778724809207
2023,638156,"Kenwood, CA",CA,38.415406999999995,-122.538753,-0.0389372468436143,NA,-0.510640582002994,0.217586159455924,-1.06377085299101,NA,NA
2023,638177,"Kep'el, CA",CA,41.284142,-123.819006,1.22253067954165,NA,NA,0.210605931727028,2.92291379475108,NA,NA
2023,638520,"King City, CA",CA,36.216283,-121.131962,0.09184861198926518,0.5363807995278359,0.5983963361393498,3.07562338742867,1.00273575463068,-0.12876862325550398,5.176216266460296
2023,638702,"Klamath, CA",CA,41.532204,-124.00641299999998,1.4655319713691697,1.9893688571715695,1.2291318376375198,-0.08715146518063453,1.74004760939713,-0.179539970371577,6.157388840023177
2023,638772,"Knightsen, CA",CA,37.962426,-121.64858,-0.6246720584045101,-1.10010082820429,-0.933774309057293,0.7949748809191078,-0.29991691898620904,0.295667740716753,-1.8678214930164416
2023,639003,"La Caada Flintridge, CA",CA,34.20969,-118.20013899999998,-0.01265657758162099,-1.9330838159390895,-0.7691820289454309,0.0315151552340164,-0.8366412975031083,-0.164774993243339,-3.684823557978573
2023,639045,"La Crescenta-Montrose, CA",CA,34.23301600000001,-118.235774,-0.571054523885099,-0.849282292131277,-0.43757512526826303,0.7328861084424517,-0.374656461509029,1.04296343873569,-0.4567188556155265
2023,639094,"Ladera, CA",CA,37.3996,-122.19909699999998,0.796687654457587,NA,-1.0824446727471198,-1.33492208433344,-0.8142249238745921,NA,NA
2023,639108,"Ladera Heights, CA",CA,33.99677600000001,-118.370028,-0.5956887919517009,-1.7791766886177198,-0.153870445450989,0.7677246990830771,-0.2724133035044701,0.236126787714443,-1.7972977427273598
2023,639114,"Ladera Ranch, CA",CA,33.549082999999996,-117.641611,-1.07513542000434,-1.94668447040561,-0.5094047548378619,-0.06348571269117999,-0.889751184360713,NA,NA
2023,639122,"Lafayette, CA",CA,37.891003999999995,-122.119529,-0.26396218865885906,-1.7779337235271198,-0.7717101550818359,-0.5000853441972588,-0.7550398220498862,-0.00864610702790357,-4.0773773405428635
2023,639178,"Laguna Beach, CA",CA,33.543372000000005,-117.761815,-0.05046817534898399,-1.39090420408073,-0.694973652759064,-0.7023541283200547,-0.5449419069997591,-0.0905195246821404,-3.474161592190732
2023,639220,"Laguna Hills, CA",CA,33.59151000000001,-117.699416,-0.454507950433492,-1.1054140128704997,-0.284125916203529,0.354622127958682,-0.34846064912888,-0.13859599368120204,-1.9764823943589207
2023,639248,"Laguna Niguel, CA",CA,33.528654,-117.701253,-0.4183981238908711,-1.3830882797815502,-0.525242648577196,-0.03937546333271,-0.5411201272055861,0.041425591324345,-2.8657990514635685
2023,639259,"Laguna Woods, CA",CA,33.612058000000005,-117.73031899999998,3.1252585270307693,0.0356916555578988,-0.359845389851678,0.316857283154189,-0.5234993543532781,2.0631502547656204,4.657612976303521
2023,639283,"Lagunitas-Forest Knolls, CA",CA,38.018026000000006,-122.691303,-0.35617715980884,-1.40108705699538,0.297697744721443,-0.268961894490405,-0.6029425731785991,-0.2540950272401559,-2.585565966991937
2023,639290,"La Habra, CA",CA,33.927927000000004,-117.95155400000002,-0.5753988399410811,-0.21863230016017104,0.07301855716919399,1.19730091662451,0.094475348707148,0.8586968804316701,1.4294605628312702
2023,639304,"La Habra Heights, CA",CA,33.958959,-117.948973,0.0775850127292732,-0.637756934989142,-0.811756614995455,0.10519226275683805,-0.9106130336239892,-1.16094831947487,-3.338297627597345
2023,639318,"La Honda, CA",CA,37.317705,-122.25843,-1.7758013858419697,NA,-0.7663592764461291,-0.07998122796008611,-1.22662323948521,NA,NA
2023,639496,"Lake Forest, CA",CA,33.654945999999995,-117.67584799999996,-0.6999094455666018,-0.8913524503073489,-0.24505209744597403,0.605889231446145,-0.369535745322303,0.13892683145321302,-1.4610336757428697
2023,639556,"Lake Hughes, CA",CA,34.682415000000006,-118.451938,0.2516355581391389,NA,-0.736810121025177,-0.33662341119319095,0.8136982553206011,NA,NA
2023,639612,"Lake Los Angeles, CA",CA,34.609839,-117.830337,0.6809085057222106,0.33783151317176197,0.461791252682866,1.50080088174863,0.361532060908251,1.01301957037507,4.35588378460879
2023,639670,"Lake Nacimiento, CA",CA,35.730962000000005,-120.869516,-0.23546010326358896,0.5006311574881361,-0.458632701778568,-0.26502721711479704,-0.5144775618521997,1.02221883585118,0.0492524093301625
2023,639724,"Lake San Marcos, CA",CA,33.12236200000001,-117.20857599999998,0.993584616539192,-0.75829193509162,-0.45296572285461306,0.00725828087792359,-0.433547314188169,1.3560229010160902,0.7120608262988039
2023,639735,"Lake Sherwood, CA",CA,34.131803000000005,-118.884714,0.9667901712644712,NA,-0.8496455443983482,-0.932667174662418,-0.607656275025851,NA,NA
2023,639766,"Lakeside, CA",CA,32.85661699999999,-116.904237,0.16624856413231204,0.13563844802541505,0.0777788815727634,0.03835507242472701,0.01339420376744419,-0.02750909101768229,0.40390607890497937
2023,639892,"Lakewood, CA",CA,33.847135,-118.121894,-0.5526095380664551,-0.6665996659489348,-0.387428011128039,0.78942707746367,-0.2754485568908461,0.9743060905402348,-0.11835260403037008
2023,640004,"La Mesa, CA",CA,32.769495000000006,-117.02192300000002,-0.713768023060991,-0.208222924457641,-0.0298905804817135,0.367823658809209,-0.071923596889168,1.1793397578336997,0.5233582917533952
2023,640032,"La Mirada, CA",CA,33.902045,-118.008961,-0.0665007277847906,-0.570072734560713,-0.2686071305850509,1.0771207817343798,-0.4758906625195421,1.00400691002855,0.7000564363128332
2023,640130,"Lancaster, CA",CA,34.69355800000001,-118.17530499999997,0.13974225355982006,0.11043224387968403,0.6211159070761458,1.1282801815706205,0.648040085539849,1.10383736836936,3.7514480399954793
2023,640256,"La Palma, CA",CA,33.850615999999995,-118.039565,-0.04373392287545671,-0.93728536868059,-0.4106266350854611,0.996987348410483,-0.537424873915826,0.5508092316848072,-0.38127422046204373
2023,640326,"La Presa, CA",CA,32.71231500000001,-117.00371,-0.183374002771225,-0.04746593779069461,-0.10169256936883402,1.1380679219651104,0.360459335654013,1.3393740980831197,2.5053688457714895
2023,640340,"La Puente, CA",CA,34.03233300000001,-117.95352,-0.229837064575858,0.08035278843956249,0.263298311002235,2.26727372051487,0.641541695389046,0.9543078813613068,3.976937332131162
2023,640426,"Larkfield-Wikiup, CA",CA,38.512972000000005,-122.753601,-0.31844046063772,-0.04050248768063901,-0.340050616233651,0.264389510476092,-0.44488040962554,-0.432468832046595,-1.311953295748053
2023,640438,"Larkspur, CA",CA,37.940544,-122.53022900000003,-0.4075038674040661,-1.19939582956243,-0.5274231237181429,-0.07124032839613878,-0.6804848241537519,-0.6659407464359139,-3.551988719670444
2023,640508,"La Selva Beach, CA",CA,36.927375000000005,-121.844404,-0.611199361428419,-1.74315055944827,-0.9276521174883072,-0.9333525797787908,-0.7043823119649647,NA,NA
2023,640526,"Las Flores, CA",CA,33.583856999999995,-117.62357099999998,-1.5960031609707703,-1.6686852840077702,-0.6002530020676099,-0.21831364974913003,-0.4933279213496751,-0.0439221360689582,-4.620505154213914
2023,640592,"Las Lomas, CA",CA,36.868813,-121.73161100000002,-0.00800501641204061,0.12394065201612904,0.6913853455686829,2.17766885284162,0.7751428960431411,0.347727477235489,4.1078602072930215
2023,640830,"La Verne, CA",CA,34.12052100000001,-117.769928,0.1821347780752199,-0.464152431751895,-0.20475971641860496,0.32450976436174706,-0.26276632243511994,0.2742993664411879,-0.15073456172746502
2023,640886,"Lawndale, CA",CA,33.888422,-118.353138,-0.98792298837243,0.00126920696996384,0.3612414147592699,1.7889273979551397,0.7382933378794639,1.2436080412371595,3.145416410428567
2023,640928,"Laytonville, CA",CA,39.66225600000001,-123.495015,1.60684116161795,0.545434772918684,0.94482732299384,-0.220446770297316,0.8060465679496369,2.9503551060570894,6.633058161239885
2023,641026,"Leggett, CA",CA,39.863539,-123.725176,1.4176618752672796,NA,NA,-0.97948077297438,3.14126054175316,NA,NA
2023,641124,"Lemon Grove, CA",CA,32.733071,-117.034414,-0.42357316975904413,0.02366663888821629,0.00874055177699401,0.942302270017862,0.16684296853220604,1.0501291879746897,1.768108447430924
2023,641180,"Lennox, CA",CA,33.938065,-118.358542,-0.7075111777714909,0.43954458809365904,0.515004448485216,2.9688058642494797,1.1715292233954997,1.47797712971868,5.865350076171044
2023,641208,"Leona Valley, CA",CA,34.608144,-118.301322,0.20286793759357105,NA,-0.6319759728490181,0.00951995242168402,-0.7036353709923819,NA,NA
2023,641282,"Lexington Hills, CA",CA,37.159016,-121.988793,-1.52168911387058,-1.4374717651450095,-0.841570601465738,-0.6815675664284239,-0.853304855094252,-0.187986169021449,-5.523590071025453
2023,641866,"Little River, CA",CA,39.270285,-123.781749,-1.38612962595977,NA,-1.0824446727471198,0.194324318113324,-1.35328620675847,NA,NA
2023,641880,"Littlerock, CA",CA,34.52512600000001,-117.981631,0.205561938533994,0.500517912351399,-0.7103696827990619,1.6058182589001495,0.447250595905725,-0.23029210056320304,1.8184869223290028
2023,641922,"Live Oak, CA",CA,36.98602399999999,-121.980413,-0.523264286818544,-0.26159788301450304,-0.02950261126016419,0.27491931689454907,-0.0552553460324463,-0.12146620851654004,-0.7161670187476484
2023,641992,"Livermore, CA",CA,37.685467,-121.762518,-0.741509491928487,-1.31645617631288,-0.595115507346109,0.282545079093171,-0.658289982557163,0.6291670863185871,-2.399658992732881
2023,642146,"Lockwood, CA",CA,35.940455,-121.07907199999998,0.27962798740505207,NA,-1.0824446727471198,-0.7578809490021998,-0.715447692989519,NA,NA
2023,642328,"Loleta, CA",CA,40.640885,-124.222556,0.3966619630489821,0.8856796197634882,-0.24550052939081396,-0.2899781610120161,-0.31558383962949205,NA,NA
2023,642384,"Loma Mar, CA",CA,37.26578400000001,-122.300692,-0.41671476058398704,NA,-1.0824446727471198,-0.978273319298112,-1.35328620675847,NA,NA
2023,642468,"Lomita, CA",CA,33.79330600000001,-118.31745100000002,-0.5971527350828688,-0.15744985986878804,0.17943957299123803,0.896013454244404,-0.0925824227519072,0.24214314330657,0.470411152838648
2023,642510,"Lompico, CA",CA,37.114619000000005,-122.052768,-0.4369600338379442,NA,-0.3999486799178531,-0.8925469831365139,0.05299031548534759,NA,NA
2023,642524,"Lompoc, CA",CA,34.662689,-120.470837,-0.22531343398131803,0.495110259970365,0.7730073648661879,1.40806876739305,0.999827965429576,0.0117163267634216,3.4624172504412822
2023,643000,"Long Beach, CA",CA,33.77808,-118.167103,-0.6563730463936701,-0.0187050288903148,0.485146316564518,1.1916643581099495,0.4761846031222421,0.8819509613344488,2.3598681638471737
2023,643224,"Los Alamitos, CA",CA,33.79691100000001,-118.06124400000002,-0.7641499050673399,-0.7306218009664961,-0.10606197440653405,0.5276665473590589,-0.10299069337137802,0.8064644048459729,-0.3696934216067162
2023,643252,"Los Alamos, CA",CA,34.72992500000001,-120.269909,1.4963105648182005,NA,-0.954262563714526,-0.7402238504195371,-0.037673069834921,-0.699177228359108,NA
2023,643280,"Los Altos, CA",CA,37.368549,-122.096644,0.00836143306663745,-2.1939118929635906,-0.749659394621343,0.00611999411965129,-0.900094162541682,-1.67337311757352,-5.502557140513847
2023,643294,"Los Altos Hills, CA",CA,37.367143000000006,-122.139,0.4842326056024821,-2.9949579219800397,-0.753004670998154,0.175012442003859,-0.640784877786673,-1.8433923055889496,-5.5728947287474755
2023,644000,"Los Angeles, CA",CA,34.019394000000005,-118.41082500000002,-0.60261427386711,-0.28062425374549105,0.7067646951954659,1.60620759055846,0.6797823626112448,1.52869952819014,3.6382156489427095
2023,644042,"Los Berros, CA",CA,35.080906999999996,-120.545036,1.7504573558844798,NA,NA,-1.2019042504559594,-1.06377085299101,NA,NA
2023,644112,"Los Gatos, CA",CA,37.23297600000001,-121.951066,-0.126942574784563,-1.60344275953015,-0.620155491695348,-0.09959577834249413,-0.7558298728489691,-0.8127589225888973,-4.018725399790421
2023,644168,"Los Olivos, CA",CA,34.661506,-120.117436,0.33425427672802693,NA,-1.0824446727471198,-0.795323797403183,-0.408695495723901,NA,NA
2023,644182,"Los Osos, CA",CA,35.307092,-120.823162,0.0398929923148159,0.0062616491294416,-0.43504373701248705,-0.26174102660589593,-0.333088021647893,NA,NA
2023,644242,"Los Ranchos, CA",CA,35.212699,-120.62802999999998,0.6336001830426409,NA,-0.9205308892087188,-0.7921701469236359,-1.31689022481695,NA,NA
2023,644378,"Loyola, CA",CA,37.350192,-122.098118,0.045773387663014,-2.371188111496239,-0.932455966088205,-0.24274817546223004,-1.00493017384971,-1.69348748243702,-6.199036521670391
2023,644399,"Lucas Valley-Marinwood, CA",CA,38.040508,-122.57648199999998,0.13209434085876504,-2.14663097972207,-0.797604043135837,-0.800247194696753,-0.768357882853015,-0.3873473914576421,-4.7680931510065525
2023,644574,"Lynwood, CA",CA,33.923962,-118.201647,-0.166942715621145,0.296055053902534,0.8660642878874469,2.4077097045529805,1.5231646527432896,0.961640451633036,5.887691435098143
2023,644910,"McKinleyville, CA",CA,40.951570999999994,-124.077357,0.00244093208128229,0.492587963698727,0.116965802053476,-0.359569527608057,0.408975688405704,0.6277173075284861,1.2891181661596185
2023,645246,"Malibu, CA",CA,34.034256000000006,-118.779529,0.5110316961423731,-1.6063373327338302,-0.00325898748652452,-0.7338343185609569,-0.240082633714538,-1.56483289242273,-3.6373144687762062
2023,645386,"Manchester, CA",CA,38.97438399999999,-123.690961,-2.388202469074289,NA,-1.0824446727471198,2.3606847118965506,-0.5603745031394901,NA,NA
2023,645400,"Manhattan Beach, CA",CA,33.889632,-118.39737,-0.288692840848681,-1.96667372657042,-0.737644038864945,-0.4768088135995482,-0.776531967396531,-0.45637177305838306,-4.7027231603385085
2023,645414,"Manila, CA",CA,40.85089699999999,-124.16319300000002,-0.961188492475682,0.307549029132678,-0.994713492404518,-0.9282075057613238,-0.429321055018384,NA,NA
2023,645778,"Marina, CA",CA,36.680256,-121.789368,-0.5865506652806739,-0.28408809782679606,0.4123702828374331,0.8446747389690001,0.157700593270688,0.6550882867612939,1.1991951387309452
2023,645806,"Marina del Rey, CA",CA,33.978840999999996,-118.45251,-2.4022764147620097,-1.32325482988345,-0.8608953116749102,0.12204178954765502,-0.15461565640626304,1.4839926815142297,-3.135007741664748
2023,645820,"Marin City, CA",CA,37.871156000000006,-122.51373599999998,-0.8156798229243211,-0.465085736618913,0.6456073129074921,1.8259252469578096,0.20244517240831003,NA,NA
2023,646114,"Martinez, CA",CA,37.99811600000001,-122.114419,-0.6281775757641529,-0.7692145555770609,-0.437147513724038,0.04311006676739289,-0.458922194575514,0.4567843883996891,-1.7935673844736837
2023,646436,"Mayflower Village, CA",CA,34.11591300000001,-118.009596,0.069036850214401,-0.23119228646479803,-0.128143488674872,1.5191082535651397,-0.190172688687027,1.46597032209681,2.5046069620496536
2023,646492,"Maywood, CA",CA,33.98850500000001,-118.187666,-0.20885702747740603,0.434832040553573,1.17930748712685,3.3923256299469697,1.37148776527246,0.889815186424623,7.05891108184707
2023,646702,"Meiners Oaks, CA",CA,34.45048499999999,-119.273133,0.4271266720941041,0.24631772255326304,-0.186941213600898,0.11605637417620902,-0.2988737294246671,1.3006679202202902,1.6043537460183013
2023,646814,"Mendocino, CA",CA,39.31140399999999,-123.812552,0.7093214766324141,0.436465837186531,-1.0824446727471198,-1.2764986358325598,-0.8328018020592712,-0.230623289490086,-2.2765810863100917
2023,646870,"Menlo Park, CA",CA,37.479731,-122.148055,-0.522086733621842,-1.5612750070198098,-0.6765527247031718,0.377652370575322,-0.640821245997279,-0.8447520104732401,-3.867835351240021
2023,647430,"Midway City, CA",CA,33.74512900000001,-117.984828,0.03284580095915031,0.4124879792242881,0.5557158132754952,2.6411343683973714,0.935601201936733,NA,NA
2023,647486,"Millbrae, CA",CA,37.59897000000001,-122.401991,-0.2555354204103199,-1.8355945370848696,-0.436068357908711,1.26091109361137,-0.37140206069568105,0.6002185489536278,-1.037470733534584
2023,647710,"Mill Valley, CA",CA,37.908122000000006,-122.54232500000002,0.00241620004703772,-1.81132709587648,-0.587288775623837,-0.6573269449342177,-0.575812664290988,-0.8123975807968978,-4.441736861475382
2023,647766,"Milpitas, CA",CA,37.433921000000005,-121.891983,-0.8149256334945342,-1.44352322401377,-0.31212047740566906,1.6954580915568502,-0.4031634187367299,0.49567240491388,-0.7826022571799729
2023,648046,"Mira Monte, CA",CA,34.428900000000006,-119.2834,1.0281454003829,0.224733924584243,0.678758713313764,-0.4278012137099561,0.08369286844098743,-0.118692051396073,1.4688376416158653
2023,648060,"Miranda, CA",CA,40.228687,-123.817584,0.5653762365513791,NA,7.492085635959279,-0.7435825582710899,1.6685302981894896,NA,NA
2023,648147,"Mission Canyon, CA",CA,34.456252,-119.716989,0.05844106746353649,-2.0180004224756796,-0.942269758410997,-0.6634599277696809,-0.7533725865460449,0.383919622671047,-3.934742005067819
2023,648186,"Mission Hills, CA",CA,34.68877900000001,-120.43975,-0.00455892106412678,-0.260237267358961,-0.412592541682236,-5.00431432060383e-4,-0.410898031052594,0.8137249387546032,-0.275062253835375
2023,648256,"Mission Viejo, CA",CA,33.60933500000001,-117.65647099999998,-0.184593896674036,-1.2303790773100798,-0.5192607822222829,0.17979143562650704,-0.555419644270774,0.244478315014046,-2.06538364983662
2023,648410,"Modjeska, CA",CA,33.70913300000001,-117.629704,-0.945039784321503,-0.7646346128683551,-0.355967586994999,-1.13474264623395,-0.9749375773010528,NA,NA
2023,648648,"Monrovia, CA",CA,34.163984000000006,-117.984646,-0.6884091550563388,-0.41052529113323705,0.03005216612863739,0.9401629912229628,-0.03273728266686151,1.2195143378100597,1.0580577663052224
2023,648718,"Montalvin Manor, CA",CA,37.997583000000006,-122.33009300000002,0.33635793242182493,0.486561320681756,0.9178235180818912,2.85427915237692,-0.00256548020004881,NA,NA
2023,648760,"Montara, CA",CA,37.548258,-122.492369,-0.416198786567362,NA,-0.863238464345167,-0.6372881224474609,0.0292498085027213,0.15201062581260005,NA
2023,648788,"Montclair, CA",CA,34.071459000000004,-117.698049,-0.13631140618678403,0.224739846084812,0.7250542522632031,1.91464666085351,0.8993741882245639,1.04757262840261,4.6750761696419145
2023,648816,"Montebello, CA",CA,34.015443999999995,-118.111012,-0.184017277015045,0.0302117729391264,0.394942272861348,2.1178563142100595,0.824214659424269,0.6173365138860428,3.800544256305801
2023,648844,"Montecito, CA",CA,34.438229,-119.628421,1.3004108237273102,-2.12168018730272,-0.386087891591235,-0.619447837816321,-0.5538958337415172,-1.72418831943041,-4.104889246154893
2023,648872,"Monterey, CA",CA,36.601193,-121.88311,-0.4193434706168741,-0.5279441145191982,-0.06936636609989671,0.14376733967661504,-0.20583272301528296,-0.27787615188141407,-1.356595486456051
2023,648914,"Monterey Park, CA",CA,34.04838,-118.13316500000002,0.0634299843755765,-0.187095077575807,0.454122007875133,2.5569567578679004,0.143859259170014,1.2883606271892798,4.319633558902097
2023,648928,"Monte Rio, CA",CA,38.473611000000005,-123.026178,0.709699253185954,0.35566291142464707,0.6839824883914148,-0.977450322039862,0.0102419005113302,1.56460601976534,2.3467422512388243
2023,648956,"Monte Sereno, CA",CA,37.240345000000005,-121.988318,0.735728119509364,-2.1945433944827295,-0.748722482953535,-0.5159861877936919,-0.9170939110001812,-1.81209349512084,-5.4527113518416135
2023,649138,"Moorpark, CA",CA,34.285942000000006,-118.87703999999998,-0.620006559454974,-1.19289205360261,-0.5305434203777669,0.31259905253975195,-0.47057751592510105,-0.0968643711155998,-2.5982848679363
2023,649187,"Moraga, CA",CA,37.845693,-122.123217,0.0199520987576596,-2.03849495207365,-0.561859086787681,0.0191701479344677,-0.5686253548990972,NA,NA
2023,649278,"Morgan Hill, CA",CA,37.13254500000001,-121.641758,-0.5597481160411942,-1.1331997566201095,-0.670210762620894,0.7280871674027438,-0.498390610914713,-0.3943880865947551,-2.527850165388922
2023,649362,"Morro Bay, CA",CA,35.36728899999999,-120.869205,0.39394319300926006,-0.110103269655007,-0.15895065909534203,-0.5162018166145292,0.111746365827292,1.61187086636487,1.3323046798365437
2023,649432,"Moskowite Corner, CA",CA,38.443873999999994,-122.19199,0.156571929414312,NA,1.3612593121994496,1.00267599762118,0.21959558823002204,NA,NA
2023,649446,"Moss Beach, CA",CA,37.518374,-122.503482,-0.30925042263693087,NA,-0.411272499621659,0.7208662502122009,-0.3854968038787821,-1.0946946374152795,NA
2023,649488,"Moss Landing, CA",CA,36.805389000000005,-121.78657699999998,3.4846268347430795,NA,NA,-0.87539428744761,0.05865043388624821,NA,NA
2023,649582,"Mountain House, CA",CA,37.774017,-121.54526300000003,-0.6631193167521229,-1.7034710847069998,-0.6652142012078839,0.6539594803348211,-0.7175937343742499,NA,NA
2023,649651,"Mountain View CDP, CA",CA,38.009205,-122.116849,-0.7776363997767288,-0.30773712344798193,-0.188153841925291,-0.31510509011103194,-0.26652474255884906,1.79241616238239,-0.06274103543749276
2023,649670,"Mountain View city, CA",CA,37.399686,-122.079269,-1.10444524794532,-1.0792428188772,-0.46359293696325105,0.894399183270508,-0.6425290138861901,0.311422769586111,-2.083988064815342
2023,649796,"Mount Hermon, CA",CA,37.051033999999994,-122.053347,-1.2292661021634497,-0.143337740334955,-0.853067540197104,-1.0439379583046695,-1.35328620675847,NA,NA
2023,649810,"Mount Laguna, CA",CA,32.871105,-116.42468700000002,1.3051828336414502,NA,NA,-1.20815788521947,0.49757964642479896,NA,NA
2023,649950,"Muir Beach, CA",CA,37.861565,-122.580322,0.33687449972124106,-1.11349728465958,-0.981872046651347,-1.0036016163780996,-0.37018156889608,-1.17141643830491,-4.303694455168776
2023,650146,"Myers Flat, CA",CA,40.26547800000001,-123.87554799999997,2.0962899744384393,NA,NA,-0.90447071832088,1.7790843525372195,NA,NA
2023,650188,"Myrtletown, CA",CA,40.78873100000001,-124.130658,0.5696819900194371,0.17999594611909903,0.38716956594549706,0.253030945325378,0.6374163649022037,0.7179415997511169,2.7452364120627317
2023,650258,"Napa, CA",CA,38.29722,-122.30117,-0.406801764431308,-0.450756270432293,-0.256589522215829,0.7127069522752639,-0.106258101640043,0.8809193466982771,0.373220640254068
2023,650398,"National City, CA",CA,32.66521700000001,-117.09878399999998,-0.18101438917486304,0.39327856934475813,0.564742164197078,2.21927255640612,0.727760487682828,1.87007698875799,5.594116377213911
2023,650916,"Newark, CA",CA,37.504076000000005,-122.031898,-0.8697640733550712,-1.2158443870883595,-0.4703989513672791,1.36587150128055,-0.3665795557235129,1.1482789599802503,-0.4084365062734224
2023,651028,"New Cuyama, CA",CA,34.942148,-119.680762,0.5830445402196179,NA,0.442067308242606,1.60981372372521,0.41011155217553297,NA,NA
2023,651182,"Newport Beach, CA",CA,33.597133000000014,-117.89026300000002,-0.2578342853827151,-1.5843204343964301,-0.47321494891404303,-0.43287230406148414,-0.5876604160482901,-0.6988310925845732,-4.034733481387535
2023,651280,"Nicasio, CA",CA,38.060622,-122.700822,-0.899083962220891,NA,-0.7468744232758021,-1.51679506140901,-0.9872607601372858,NA,NA
2023,651476,"Nipomo, CA",CA,35.030660000000005,-120.49775700000002,0.0348291768065325,-0.0624651804152957,-0.411364757218212,0.747969113008957,-0.2754849683486011,0.6258942102929901,0.6593775941263708
2023,651622,"Norris Canyon, CA",CA,37.74539600000001,-121.98781200000002,0.495407873429135,NA,-1.0824446727471198,2.1551312493795405,-0.636230669604162,NA,NA
2023,651820,"North El Monte, CA",CA,34.102947,-118.02383799999998,-0.525755077497213,-0.912882369068179,-0.373389946773388,1.8531133219385705,-0.445109808900502,2.03376382816438,1.6297399478636685
2023,651840,"North Fair Oaks, CA",CA,37.47537200000001,-122.203469,-0.29093776538556604,-0.6231145255458089,0.567969082830388,1.9882017782544097,0.7047451134141842,0.7481478208920229,3.09501150445963
2023,651890,"North Gate, CA",CA,37.906153,-121.998184,1.22734587270207,NA,-0.935895989007567,-0.268467841518618,-1.12710233662764,NA,NA
2023,652162,"North Richmond, CA",CA,37.965269000000006,-122.370649,-0.8838733023030702,-0.14268531411438,0.04558369702347901,2.4008428859496194,0.626321888682793,NA,NA
2023,652379,"North Tustin, CA",CA,33.764421000000006,-117.794483,-0.179429226904628,-1.6210423126334501,-0.568782747645942,0.04442441718350141,-0.716398819807575,NA,NA
2023,652526,"Norwalk, CA",CA,33.907599999999995,-118.08345300000002,-0.3262685304174999,-0.17881036578430903,0.05551407505242151,1.7785862775348598,0.250659366805221,1.0158117473501496,2.5954925705408427
2023,652582,"Novato, CA",CA,38.085086999999994,-122.548215,0.0333487456525344,-1.0491742830170396,-0.239765761468595,0.339007519351484,-0.226369359565585,-0.0379874418607062,-1.1809405809079074
2023,653000,"Oakland, CA",CA,37.769846,-122.22569,-0.7816771416110219,-0.41045735315788207,0.5579445065671181,1.1922484149553902,0.28620195243640895,1.70290756598779,2.5471679451778035
2023,653070,"Oakley, CA",CA,37.996149,-121.693624,-0.713459451335154,-0.607868240140504,-0.27892280079637805,0.6063237149191659,-0.07876763188339773,0.6518739222505111,-0.42082048698575675
2023,653116,"Oak Park, CA",CA,34.184963999999994,-118.76692,-0.5007509987796189,-1.71795074490108,-0.574738589609458,-0.190868256968461,-0.7691502657409067,0.508598866395286,-3.2448599896042385
2023,653160,"Oak Shores, CA",CA,35.76075900000001,-120.98282500000002,0.17931294954135904,NA,1.01924346048904,-1.2550032460708498,-0.29022201714354806,NA,NA
2023,653182,"Oak View, CA",CA,34.398971,-119.29757,0.17917391576722402,-0.664828493141018,-0.00406337386144467,-0.31531794354324705,0.0856127058863392,0.329515658214008,-0.3899075306781385
2023,653196,"Oakville, CA",CA,38.43837300000001,-122.406773,NA,NA,NA,NA,NA,NA,NA
2023,653266,"Occidental, CA",CA,38.400378,-122.93495,-0.0603529807678301,-0.377015632638615,-0.534718573376709,-0.06059945764924761,-0.15729808716585905,1.8317215199634296,0.6417367883651691
2023,653294,"Oceano, CA",CA,35.101608,-120.608217,0.389917231495088,0.757658398675989,0.847683381938279,0.696878627962472,0.595280950271187,0.9809371228412048,4.26835571318422
2023,653322,"Oceanside, CA",CA,33.224601,-117.306291,-0.4219875171876191,-0.425699058257051,-0.28577014083513497,0.68729047033599,-0.15872823843820902,1.03078570559137,0.425891221209346
2023,653476,"Ojai, CA",CA,34.448253,-119.246578,0.5812340888778608,-0.5888264087766749,-0.08360578892632001,-0.18123759706354897,0.28744406016952406,1.28738912325646,1.302397477537301
2023,653980,"Orange, CA",CA,33.82876,-117.78510900000002,-0.6141046785797991,-0.7192529789873328,-0.18589168101467396,0.7059853682842119,-0.121535920808795,0.732003257300242,-0.202796633806147
2023,654120,"Orcutt, CA",CA,34.867267999999996,-120.423559,0.136700695905439,-0.2943818828991531,-0.413586012495353,0.0315565339285749,-0.348495680337876,0.546923205693938,-0.3412831402044301
2023,654218,"Orick, CA",CA,41.29021600000001,-124.07030199999998,0.34885481980407307,1.74795472709126,0.653913403255465,0.4329713823522981,0.5210552852457608,NA,NA
2023,654232,"Orinda, CA",CA,37.881609999999995,-122.168595,0.11248245605105102,-1.70178547457616,-0.966404899858875,-0.24099907212151603,-0.930851444030962,-0.6779201293856628,-4.405478563922125
2023,654652,"Oxnard, CA",CA,34.19943600000001,-119.207515,-0.438098845074782,-0.14298473501355696,0.09937732548132232,2.0729283308291295,0.405723836715407,0.34072919652777095,2.337675109465291
2023,654764,"Pacheco, CA",CA,37.987838000000004,-122.069904,-0.2543811696540231,0.848403159333863,0.042661679074451,0.656238457686647,0.6340573230683438,-1.35909297553974,0.5678864739695417
2023,654806,"Pacifica, CA",CA,37.606598000000005,-122.47723000000002,-0.44571500536081504,-1.46086272660293,-0.3961806812791081,0.26779691923497206,-0.555209157838145,0.7071259151138881,-1.883044736732138
2023,654848,"Pacific Grove, CA",CA,36.62257700000001,-121.92643,0.17441266304231404,-0.7911185019924998,-0.5399182523290952,-0.3092719489225049,-0.433641540893145,0.42634445446987407,-1.4731931266250569
2023,655044,"Pajaro, CA",CA,36.901650999999994,-121.741704,0.6728321287684909,0.6596512086233292,0.38565856069305504,3.59519579136929,0.8834647508996019,0.29648380574731503,6.493286246101082
2023,655048,"Pajaro Dunes, CA",CA,36.86821200000001,-121.805697,4.317097961198509,NA,NA,-1.42461575949826,-0.8692527246784871,NA,NA
2023,655058,"Pala, CA",CA,33.361655,-117.069542,0.653345933237748,1.64886532082223,-0.07697985589645978,1.90194213127372,0.5984301227969908,NA,NA
2023,655156,"Palmdale, CA",CA,34.591038000000005,-118.105403,-0.201953939545688,-0.0988629382784958,0.6560980375710411,1.6370661541490998,0.8346394768191122,0.996208800007126,3.8231955907221953
2023,655282,"Palo Alto, CA",CA,37.399782,-122.14277599999998,-0.301805648051964,-1.6625965035958,-0.494379928517963,0.45113701611586793,-0.725511693354549,-0.8854316165437051,-3.6185883739481137
2023,655380,"Palos Verdes Estates, CA",CA,33.787171,-118.397361,0.513261041113142,-2.22114318701848,-0.8117906539368832,-0.04923621419902141,-0.9163725189421448,-1.2399771450843895,-4.725258678067777
2023,655604,"Paradise Park, CA",CA,37.006297000000004,-122.042413,-0.939544707044749,NA,-0.644929031031352,-0.939144886785086,-0.4119197933964851,NA,NA
2023,655618,"Paramount, CA",CA,33.898883000000005,-118.166629,-0.5155601986130259,0.615139842927897,0.4509073358361,2.09312740355359,0.771263916587158,0.0619920665745718,3.476870366866291
2023,656000,"Pasadena, CA",CA,34.160602000000004,-118.137954,-0.697098695625017,-0.5869973591335,0.23945039538653504,0.9743234504720368,-0.05111527819728249,0.9598506101282492,0.8384131230310214
2023,656028,"Pasatiempo, CA",CA,37.003421,-122.026505,1.57454147516003,NA,-1.0824446727471198,-0.21298773617621303,-1.15979713569462,NA,NA
2023,656476,"Penngrove, CA",CA,38.300598,-122.67056599999998,-0.7905657004124178,-0.980732847304038,-0.04557140520984999,-0.198165892044556,-0.539933104079713,NA,NA
2023,656598,"Pepperdine University, CA",CA,34.042278,-118.709182,0.360888056425862,NA,-1.0824446727471198,-0.6084443389426207,-0.9689594878062268,NA,NA
2023,656756,"Pescadero, CA",CA,37.244893999999995,-122.378866,-1.87472507818524,NA,-0.5429836387869029,1.94206797809755,1.63331203213293,NA,NA
2023,656784,"Petaluma, CA",CA,38.24225300000001,-122.62863099999998,-0.3023139713399661,-0.669551817031079,-0.5321206234495122,-0.06413195860357798,-0.4562282480710069,0.09444371250009788,-1.9299029059950443
2023,656786,"Petaluma Center, CA",CA,38.250652,-122.788841,-0.485172516006825,NA,NA,0.21768096024017897,-1.15310830608008,NA,NA
2023,656854,"Phillipsville, CA",CA,40.210704,-123.781212,NA,NA,NA,NA,NA,NA,NA
2023,656868,"Philo, CA",CA,39.06572000000001,-123.445217,2.94399503241616,NA,NA,-0.07937500339297808,-1.35328620675847,NA,NA
2023,656924,"Pico Rivera, CA",CA,33.989523999999996,-118.08929500000002,-0.110991523170254,-0.04828106597364389,0.21567465929305593,1.88695815041698,0.3202828807471181,1.06757239915173,3.331215500464986
2023,656938,"Piedmont, CA",CA,37.822544,-122.230025,-0.399105186907759,-2.46050859478493,-0.7296123549700618,-0.30722813498135493,-0.930294899274968,-1.19820833609401,-6.024957507013084
2023,657070,"Pine Canyon, CA",CA,36.17207200000001,-121.143013,0.25327514491695596,0.770274792377016,-0.24963178362249203,0.9330085897043578,-0.370040119936704,NA,NA
2023,657204,"Pine Hills, CA",CA,40.73295000000001,-124.161326,0.7748457221855952,-0.0947275115279189,0.639035078315698,-0.7252883090332989,0.163246619514648,0.9795263492673386,1.736637948722062
2023,657260,"Pine Valley, CA",CA,32.841513000000006,-116.510706,0.8882373446996449,NA,-0.9617575214321928,-0.7071973372276239,0.821748242750969,-0.20871654430786704,NA
2023,657288,"Pinole, CA",CA,38.001702,-122.318488,0.05356757294042131,-0.9874675991654248,-0.47975460672462006,0.948770285347357,-0.31430871582912606,0.274792079619518,-0.5044009838118746
2023,657372,"Piru, CA",CA,34.406921000000004,-118.799572,-0.8677595271546341,0.270548658910435,-0.228770462982708,2.4606236253318294,0.08962590607225883,0.0464720124264231,1.7707402126036045
2023,657414,"Pismo Beach, CA",CA,35.153173,-120.67387399999998,0.5217978160909341,-0.2938209948269361,-0.2962244082299441,-0.6802309611164408,-0.5805832545127588,0.0918347676732712,-1.2372270349218746
2023,657456,"Pittsburg, CA",CA,38.016771000000006,-121.89694799999998,-0.363849320472068,-0.47985078604446313,0.1504293898373311,1.4933971522136895,0.4235224792538422,0.796931423214068,2.0205803380023997
2023,657526,"Placentia, CA",CA,33.881158,-117.854783,-0.4947024642376221,-0.777029285190835,-0.128888795094099,0.640258377434602,-0.174217924288349,0.733688317197794,-0.20089177417850904
2023,657764,"Pleasant Hill, CA",CA,37.954162999999994,-122.07577199999996,-0.5556946600575811,-1.02709447616877,-0.4600749797429911,0.16865027015914,-0.50270518213346,0.7431327241747869,-1.6337863037688751
2023,657792,"Pleasanton, CA",CA,37.667185,-121.88123,-0.4265028007891431,-1.6449307084946498,-0.45062905274351495,0.5488294828335712,-0.609328227993036,0.2877929115774491,-2.294768395609323
2023,657876,"Point Arena, CA",CA,38.912314,-123.695593,-1.1897508070471898,0.4736815837445551,0.34646591654692493,0.555906156611222,0.13281122356233302,2.2181230947271304,2.5372371681449755
2023,657960,"Point Reyes Station, CA",CA,38.084647,-122.809226,0.4386496717619821,NA,NA,-0.8508243300137812,-0.720122252739038,NA,NA
2023,658072,"Pomona, CA",CA,34.058493999999996,-117.761091,-0.3205977724290431,0.17095784861824,0.515739030968351,1.89572452968032,0.732751975043541,1.16937647249291,4.163952084374319
2023,658226,"Port Costa, CA",CA,38.044542,-122.184944,1.71810617823677,NA,NA,-0.9739106866272268,-0.7859467644956319,NA,NA
2023,658296,"Port Hueneme, CA",CA,34.16214300000001,-119.204177,-0.52942548131427,-0.166009765975391,0.07554264939898409,1.33140898834903,0.12010638374566902,0.4207183981826521,1.252341172386674
2023,658380,"Portola Valley, CA",CA,37.365222,-122.23274499999998,1.66703577879864,-2.2963357342381796,-0.774979787254337,-0.523474086457863,-0.9269891560494852,-2.0546592762487297,-4.909402261449954
2023,658478,"Potrero, CA",CA,32.613088999999995,-116.606815,0.46286553650076,NA,4.841920794490041,4.170944257430488,0.121432626494573,NA,NA
2023,658506,"Potter Valley, CA",CA,39.317141,-123.10986,0.7865234794850529,0.6850330051346267,-0.47045390557585504,0.148924777237939,-1.0277323161169698,NA,NA
2023,658520,"Poway, CA",CA,32.987677,-117.02181400000002,-0.182219121667082,-0.938473386502396,-0.624185758969707,0.0991440521914114,-0.5008266522864931,0.5126742381048361,-1.6338866291294305
2023,658870,"Prunedale, CA",CA,36.811747,-121.65496,0.22670361558259203,-0.017054614247456,-0.3777190408197719,0.8329926146203581,0.01571024398604449,-0.34869358604877587,0.33193923307299084
2023,659052,"Quartz Hill, CA",CA,34.651987999999996,-118.215945,0.0605895048955983,0.320895246260401,0.34257574088690795,0.3019285151959461,0.256523725106901,0.44402208656906206,1.7265348189148164
2023,659248,"Rainbow, CA",CA,33.409850999999996,-117.13943799999998,0.6810278771119129,-0.34779590695032797,-0.3803729720468471,0.624604556876368,-0.05832187993329419,1.23645791513057,1.7555995901883816
2023,659346,"Ramona, CA",CA,33.045811,-116.877546,-0.127366531834269,-0.16841655882822204,-0.390325233246149,0.4153424573238571,-0.114570498752851,0.7614332219883139,0.37609685665067993
2023,659503,"Rancho Mission Viejo, CA",CA,33.51400099999999,-117.56179299999998,-0.666615051295792,-1.7036564093652,-0.760887763728105,0.16454399140670703,-0.961610673217072,NA,NA
2023,659514,"Rancho Palos Verdes, CA",CA,33.753134,-118.36797300000002,0.3361275057995,-2.08886738009182,-0.7361283245142509,0.366487204464066,-0.749617508527094,-0.4270815992326991,-3.2990801021022977
2023,659550,"Rancho San Diego, CA",CA,32.76240400000001,-116.919691,-0.00232734102440658,-0.98467159812101,-0.143815976680442,-0.17162802810585498,-0.2945215686048771,0.255959055783059,-1.3410054567535317
2023,659584,"Rancho Santa Fe, CA",CA,33.02581400000001,-117.198148,1.29777774653812,-2.24643414939948,-0.912784353656607,-0.3297781917067741,-0.859177445981566,-1.5053651525333098,-4.5557615467396175
2023,659587,"Rancho Santa Margarita, CA",CA,33.63233200000001,-117.599008,-1.03616303517197,-1.006748783419,-0.42639169851128,0.00102483371838117,-0.6025256913831161,0.0857449344071829,-2.9850594403598016
2023,659906,"Redcrest, CA",CA,40.39877500000001,-123.94741500000003,2.4258824817920197,NA,NA,1.6142875005015405,3.17039119585824,NA,NA
2023,660018,"Redondo Beach, CA",CA,33.85684,-118.377002,-0.9793646248860598,-1.13913069109072,-0.637118826785713,0.24479898768818603,-0.559364156627687,0.655089122758524,-2.4150901889434695
2023,660088,"Redway, CA",CA,40.120223,-123.82177699999998,0.14797800455879803,1.44654553277908,1.00129732458409,-1.0175457272724795,1.35264079014007,0.8646880012828341,3.795603926072392
2023,660102,"Redwood City, CA",CA,37.515274000000005,-122.213672,-0.808550222290444,-1.2312609278390398,-0.426760414785185,0.8293335747477039,-0.32382289966444716,0.33108020532187304,-1.629980684509539
2023,660214,"Redwood Valley, CA",CA,39.26854800000001,-123.202758,1.28573584152027,0.6692164280612908,1.68613945879231,0.7184284709504559,0.6957141017396897,NA,NA
2023,660279,"Reliez Valley, CA",CA,37.939882999999995,-122.102694,0.149952924202444,-2.5458436584317,-0.6448042468015771,-0.390775212857794,-0.765910411489956,NA,NA
2023,660620,"Richmond, CA",CA,37.952278,-122.360609,-0.5102077581013249,-0.18345038157091204,0.359603080371841,1.80710758263433,0.439938340313101,1.19957145334832,3.112562316995355
2023,660900,"Rio Dell, CA",CA,40.49559100000001,-124.11493,-0.376857499540716,1.0339410953594794,0.13798888044569302,0.442541562805409,0.23429487158628104,0.48240357596309014,1.9543124866192367
2023,660928,"Rio del Mar, CA",CA,36.957899,-121.884823,-0.00147379907300012,-1.70468098744829,-0.719866813555635,-0.580727024650702,-0.8085878008863839,0.24695930588868803,-3.568377119725323
2023,660984,"Rio Vista, CA",CA,38.17611600000001,-121.704601,1.82400994590118,0.12466163306818703,-0.29298299552639906,-0.06370754576393439,0.164812575410328,0.29887618620329004,2.0556697992926516
2023,662490,"Rodeo, CA",CA,38.036605,-122.253956,-0.4316743879577281,-0.5020269290653647,0.0194910367136613,0.8991148357916819,0.5275792739876148,0.6303383809533197,1.1428222104231849
2023,662546,"Rohnert Park, CA",CA,38.348213,-122.69888199999998,-0.9270205373853831,-0.27596112499004904,-0.192170342756877,0.4307965806474531,-0.15381543613287504,-0.108926454584877,-1.227097315202608
2023,662602,"Rolling Hills, CA",CA,33.76001500000001,-118.34716400000003,0.939942137793216,-2.4460404887542997,-0.4533266832140921,-0.404999660651025,-0.857136844258847,-1.81678831669105,-5.038349855776098
2023,662644,"Rolling Hills Estates, CA",CA,33.761610000000005,-118.393034,0.7304322726576479,-2.0468278100446597,-0.704601822922325,-0.10669507925131502,-0.740987202875082,-0.9040314657612658,-3.772711108196999
2023,662700,"Rollingwood, CA",CA,37.96539300000001,-122.33055,-0.240928977602532,-0.175584097822699,0.160816148650056,2.57474986149754,1.2199368376275497,1.2363953167044897,4.775385089054405
2023,662826,"Rosamond, CA",CA,34.865626999999996,-118.214767,-0.136729076185159,0.8933870717700879,0.6563347998744928,0.8334524201848801,0.460940637019199,0.836151179977822,3.5435370326413227
2023,662860,"Rose Hills, CA",CA,34.009109,-118.041938,-0.25183916390998407,-0.26345317715894806,-0.8576114094699511,0.2597375338644581,-0.7262519642767669,NA,NA
2023,662896,"Rosemead, CA",CA,34.06888,-118.08268,0.09312419109534892,0.12373256677161304,0.49594882517185807,3.00997284913194,0.5140750967535361,1.2470488698097502,5.483902398734046
2023,662980,"Ross, CA",CA,37.963815,-122.56156900000003,0.1865104283907,-2.4036268390248097,-0.9150325499868198,-0.6570618055922649,-0.931256692960115,-1.81052855459743,-6.530996013770739
2023,663050,"Rossmoor, CA",CA,33.788624000000006,-118.08036300000002,0.0703949415802973,-2.2214833569801304,-0.6788133491978308,-0.487717092984415,-0.8084782346372831,0.29942808025526113,-3.8266690119641007
2023,663218,"Rowland Heights, CA",CA,33.97031300000001,-117.890568,-0.0694278085720152,-0.34104794025862895,0.266096608584773,2.6748521770008193,0.18574661269613,0.8960897228636628,3.612309372314741
2023,663400,"Rutherford, CA",CA,38.458864,-122.428831,0.482199026128046,NA,-1.0824446727471198,0.016107162065985,-0.8993310784932801,NA,NA
2023,664140,"St. Helena, CA",CA,38.512838,-122.468034,-0.04813032538846708,-0.98893198611362,-0.369354607858543,-0.04326512676495858,-0.336992424368672,1.0682611032674,-0.7184133672268609
2023,664224,"Salinas, CA",CA,36.69021700000001,-121.633793,-0.3026237666964379,0.04743828133072191,0.4904884212345931,2.43532586202787,0.64531840273112,0.07128720978108319,3.3872344104089502
2023,664252,"Salmon Creek, CA",CA,38.346212,-123.05932900000002,NA,NA,NA,-1.7363797127505398,NA,NA,NA
2023,664378,"Salyer, CA",CA,40.876768,-123.57350099999998,0.175077494958776,NA,-0.125567973035946,1.7274286367113398,-1.11805498182241,NA,NA
2023,664392,"Samoa, CA",CA,40.814609,-124.189215,-0.2429993358476291,NA,-0.6503215593429659,1.06371477130696,0.223287826629921,NA,NA
2023,664434,"San Anselmo, CA",CA,37.982122,-122.56991,-0.6779244275380971,-1.4796759181306698,-0.6184450757674369,-0.516928970142684,-0.5557739351797731,0.1269325958137,-3.721815730944961
2023,664476,"San Ardo, CA",CA,36.023699,-120.907307,-1.40921817819395,NA,2.1384068208768596,2.5461881281302796,2.57009795898423,NA,NA
2023,665028,"San Bruno, CA",CA,37.62537800000001,-122.43135700000002,-0.6644805516436849,-1.0367123794612103,-0.5172830232085841,1.1533472056941898,-0.43899597449742706,0.5081520039942039,-0.9959727191225128
2023,665042,"San Buenaventura (Ventura), CA",CA,34.26778,-119.254206,-0.357186507895196,-0.3153785269678391,-0.12988127941488098,0.229673168722618,-0.141207178538182,0.25893767180596705,-0.45504265228751306
2023,665070,"San Carlos, CA",CA,37.495462,-122.266795,-0.911694455078636,-1.51030799849085,-0.730277274316273,0.05765305111471489,-0.6878371922221529,-0.250181600266682,-4.032645469259879
2023,665084,"San Clemente, CA",CA,33.44914300000001,-117.61312,-0.17838508585918503,-1.20728681782158,-0.653706970277789,-0.31850088103421303,-0.5249834254791921,0.629355175585386,-2.253508004886573
2023,665112,"Sand City, CA",CA,36.621903,-121.84752500000002,-1.56469060374278,-0.354406579629138,0.06149485772128789,0.624818946597405,0.131756958543953,1.7359163415033598,0.6348899209940878
2023,666000,"San Diego, CA",CA,32.814977,-117.13556199999998,-0.69815017222516,-0.46101576019298207,-0.0356002959590721,0.7557887203570379,-0.00811840279761285,0.997268912861199,0.5501730020434099
2023,666004,"San Diego Country Estates, CA",CA,33.009376,-116.787314,-0.2753524724398701,-1.03839620274651,-0.8093967322858461,-0.38943130988785407,-0.5848321041147129,0.05845635882838079,-3.0389524626464124
2023,666070,"San Dimas, CA",CA,34.107957000000006,-117.80852899999998,-0.184941943689183,-0.5417416082307012,-0.172649398979617,0.6900807633768908,-0.27926836066981103,0.3033008343958711,-0.1852197137965503
2023,666140,"San Fernando, CA",CA,34.288652000000006,-118.436241,-0.3819687562408571,-0.0240410439717697,0.154797579996077,1.93896550817631,1.03170736842756,1.5749488747657103,4.294409531153031
2023,667000,"San Francisco, CA",CA,37.72723900000001,-123.03222900000002,-0.874315373546317,-0.8579068023425822,-0.01228470216261179,1.0386527746495702,-0.0745095396798418,0.9862224438312048,0.20585880074942217
2023,667042,"San Gabriel, CA",CA,34.094636,-118.09846899999998,-0.363511649555685,-0.29281744550070604,0.4087587990904431,2.5861249406983604,0.106786942693781,1.17455324634984,3.6198948337760335
2023,667070,"San Geronimo, CA",CA,38.00671300000001,-122.663266,0.6629259778693238,NA,-0.385817825743376,-1.4861672533991597,-1.35328620675847,0.125617759148161,NA
2023,668000,"San Jose, CA",CA,37.29673900000001,-121.818909,-0.67540544612559394,-1.1200118334883602,-0.23773369592241103,1.49813844975562,-0.14574167523685796,0.42617189040414505,-0.25458231061345804
2023,668028,"San Juan Capistrano, CA",CA,33.500895,-117.654397,-0.18664057138825896,-0.8426962807734771,-0.4300928615854221,0.305775492945423,-0.4194994173669021,-0.0924503284037367,-1.665603966572374
2023,668084,"San Leandro, CA",CA,37.703368000000005,-122.163036,-0.344123970235514,-0.38298333696177,-0.183117988360198,1.7497958568364798,-0.01066814550499909,0.9428577378684372,1.7717601536424357
2023,668112,"San Lorenzo, CA",CA,37.67444,-122.13513399999998,-0.389301392009221,-0.564290460467673,-0.271825032396559,1.7751877904971898,0.0341431212486553,0.9920292387436852,1.5759432656160772
2023,668140,"San Lucas, CA",CA,36.12834900000001,-121.021732,1.1904508727247003,1.1246804445119405,3.373952198138799,2.16525489921058,2.5929364692328294,-1.86371678454507,8.583558099273779
2023,668154,"San Luis Obispo, CA",CA,35.26350100000001,-120.66238699999998,-0.5810097577622849,-0.15089245299570905,-0.29202832961387404,-0.3135763559289191,0.636008995617527,0.551616730159739,-0.14988117052352107
2023,668196,"San Marcos, CA",CA,33.132567,-117.169892,-0.45432741226429807,-0.457268699777217,-0.031556266667028,0.6254636253611949,-0.14607099960814998,1.35253390305488,0.8887741500993818
2023,668224,"San Marino, CA",CA,34.12267100000001,-118.112911,0.23200037089102105,-2.371188111496239,-0.681485874036596,1.5356446200986198,-0.7061233222243659,-0.6557978259681781,-2.6469501427357387
2023,668238,"San Martin, CA",CA,37.08288099999999,-121.596322,-0.0276174945025445,-1.28230442858311,-0.672875674321756,0.6467915584155012,-0.456982498107552,-0.24310792630936,-2.0360964634088212
2023,668252,"San Mateo, CA",CA,37.56031000000001,-122.3106,-0.754059932426657,-1.3714525536262605,-0.232962037161154,1.0523918074173595,-0.3228257045375121,0.448252774461448,-1.1806556458727755
2023,668263,"San Miguel (Contra Costa County), CA",CA,37.88669899999999,-122.036833,-0.10690742919153598,-1.70687768404852,-0.96600670103448,-0.8613792221139341,-1.0079022845998795,NA,NA
2023,668266,"San Miguel (San Luis Obispo County), CA",CA,35.753402,-120.69239199999998,-0.03632366314070849,0.317444677596123,0.6933376250914137,1.9492846010603295,0.7138085907066919,0.7333569980865828,4.370908829400433
2023,668294,"San Pablo, CA",CA,37.962851,-122.342574,-0.4028628223799081,0.25715437032068206,0.31261522417363496,2.20470618751508,0.6721964743405678,0.597189758050274,3.640999192020331
2023,668308,"San Pasqual, CA",CA,34.13921800000001,-118.102517,-0.6399406385945562,-1.03666615278137,-0.26358319645785305,0.7851227269037488,-0.638665148440675,NA,NA
