PACFIN_YEAR,GEO_ID2,MAPNAME,STATEABBR,PRIMARY_LATITUDE,PRIMARY_LONGITUDE,TOTPOP,LabFrc_Rev,HsChr_Rev,Pvrty,PopCom,PerDis,Social_Vulnerability
2022,3030R,"La Push/Quileute Reservation, WA",WA,47.906402,-124.621813,352,0.60968721605502,NA,3.20574848605983,-0.401068342421319,2.7706742665272,6.18504162622073
2022,600135,"Acalanes Ridge, CA",CA,37.904722,-122.078574,961,-0.504095662903548,-2.10151507246879,-0.907444130218303,-0.639982001611434,-0.839813268250577,-4.992850135452652
2022,600156,"Acampo, CA",CA,38.173529,-121.279892,255,-0.928598113091055,NA,-1.06722408756567,-0.742939836210789,2.15780055626969,-0.580961480597824
2022,600212,"Acton, CA",CA,34.49607,-118.183897,7286,0.170529847165131,-0.618508784692945,0.160526933305227,-0.250435663745103,-0.463203079878776,-1.0010907478464661
2022,600394,"Agoura Hills, CA",CA,34.148942,-118.76393,20088,-0.439022995297277,-1.81416452802334,-0.548997396711963,-0.0821208720029089,-0.635827248498442,-3.5201330405339313
2022,600450,"Agua Dulce, CA",CA,34.501678,-118.32068,3161,0.116345492069348,NA,-0.609170163387438,-0.026164118909787,-0.240078942914646,-0.7590677331425231
2022,600464,"Aguanga, CA",CA,33.452246,-116.85547,603,1.54341147088701,NA,1.85134376473478,-0.906731459365912,2.31304875537915,4.801072531635027
2022,600562,"Alameda, CA",CA,37.741911,-122.259914,77565,-0.695747777627658,-0.942536161996555,-0.2692142571977,0.257262522118786,-0.379058136473424,-2.029293811176551
2022,600618,"Alamo, CA",CA,37.854601,-122.012985,14355,0.366530244243322,-2.68316385306422,-0.816990117386651,-0.561518224266263,-0.912723731621277,-4.607865682095089
2022,600674,"Albany, CA",CA,37.89065,-122.318116,20027,-0.802230434146287,-0.802008966766813,-0.221704119766519,0.299854941563906,-0.548997700847091,-2.075086279962804
2022,600716,"Albion, CA",CA,39.225327,-123.757586,222,1.87345336236718,NA,NA,-0.534187784297279,0.805141802983263,2.144407381053164
2022,600786,"Alderpoint, CA",CA,40.161347,-123.615729,91,1.95639872592871,NA,NA,-1.25962787563715,2.3368355519208,3.03360640221236
2022,600884,"Alhambra, CA",CA,34.083571,-118.136444,82295,-0.351117204882116,-0.104529266160398,0.295053624185967,1.67954392939199,0.136134089065034,1.655085171600477
2022,600898,"Alhambra Valley, CA",CA,37.96654,-122.131847,917,0.315704616085094,NA,1.74184835430457,-0.139455741164975,0.8719383922834,2.790035621508089
2022,600947,"Aliso Viejo, CA",CA,33.579219,-117.728915,51896,-1.26641902418608,-0.829486173961973,-0.41855029934422,0.306220223398872,-0.634160287075636,-2.8423955611690364
2022,600996,"Allendale, CA",CA,38.442986,-121.98333,1752,0.714176089015002,-1.58695107050956,0.00276433135044768,-0.239095137007949,-0.26268100092912,-1.3717867880811794
2022,601150,"Alondra Park, CA",CA,33.890155,-118.335678,8314,-0.137441254441392,-0.0363154181331837,-0.363928778927924,1.9319604602087,0.165506856667959,1.559781865374159
2022,601192,"Alpine, CA",CA,32.842487,-116.755911,15911,-0.0822043212814954,-0.516332044255776,-0.440185847497926,-0.304384777574603,-0.417005461386606,-1.7601124519964064
2022,601290,"Altadena, CA",CA,34.192212,-118.135589,42719,-0.339077641046075,-0.904153276331615,-0.355510878094796,0.591992437946563,-0.275136448114598,-1.2818858056405211
2022,601416,"Alto, CA",CA,37.905581,-122.518718,659,-0.753752772118055,-1.94788828028577,-1.06722408756567,-0.0309051677185339,-0.270871529470164,-4.070641837158193
2022,601458,"Alum Rock, CA",CA,37.369436,-121.823958,11831,-0.284424403464507,-0.670296942839671,-0.160439804789245,1.81853963606927,0.658613487882973,1.3619919728588201
2022,601640,"American Canyon, CA",CA,38.179033,-122.259602,21669,-0.587689577819245,-0.56417540943559,-0.167083609442649,0.598003459894646,-0.124137984030816,-0.8450831208336541
2022,601651,"Amesti, CA",CA,36.959483,-121.781739,3048,-0.266722141165061,0.146135872537971,0.115111821192473,0.619868091019592,0.088271521464524,0.7026651650494989
2022,602000,"Anaheim, CA",CA,33.823599,-118.016329,347111,-0.644081545277761,-0.211491416319984,0.324640323996527,1.16368275317509,0.383107338267121,1.015857453840993
2022,602028,"Anchor Bay, CA",CA,38.812653,-123.570267,369,0.420496366302682,NA,NA,0.541357247858034,-0.663542497645473,0.2983111165152429
2022,602168,"Angwin, CA",CA,38.577875,-122.451224,2731,-0.467781915398246,-0.0931522341054546,-0.214687710675259,-0.238049941697755,-0.202837021446572,-1.2165088233232866
2022,602252,"Antioch, CA",CA,37.979075,-121.796195,115016,-0.380615007377623,-0.585380983124608,0.259130443062591,0.878870851758398,0.33099018196091,0.5029954862796681
2022,602378,"Aptos, CA",CA,36.99115,-121.893455,6614,0.191057600913974,-0.33148847369147,-0.696207128847496,-0.211526922247209,-0.72764318699642,-1.775808110868621
2022,602382,"Aptos Hills-Larkin Valley, CA",CA,36.963492,-121.835214,1746,0.751858081902207,-0.643037019749989,-0.885961211351346,0.564841773420174,0.0723760512617781,-0.13992232451717573
2022,602462,"Arcadia, CA",CA,34.132689,-118.036347,56181,-0.0818904870919551,-1.05792267077359,-0.134714581200559,0.947082208980183,-0.259193796992209,-0.58663932707813
2022,602476,"Arcata, CA",CA,40.862291,-124.074967,18536,-0.657491304340523,0.79159354421325,0.785495831262763,-0.312560041722297,1.43067404635821,2.037712075771403
2022,602812,"Aromas, CA",CA,36.874755,-121.630732,2744,0.0584713591278856,-1.15444415227154,-0.596860837881465,0.0376751248270954,-0.656108685572636,-2.31126719177066
2022,602868,"Arroyo Grande, CA",CA,35.124153,-120.584528,18435,0.241986601870831,-0.321106106546136,-0.584681243298973,-0.307305269723509,-0.397419379436058,-1.368525397133845
2022,602896,"Artesia, CA",CA,33.867593,-118.080635,16237,-0.0750364624226513,-0.407061942064128,-0.186137933091097,1.1356767441189,0.399829214315183,0.8672696208562065
2022,602980,"Ashland, CA",CA,37.694169,-122.115899,23164,-0.491634970586308,-0.0766667546460394,0.914705783703363,1.68590544667055,0.472456066327695,2.5047655714692607
2022,603064,"Atascadero, CA",CA,35.485718,-120.687942,29758,-0.455964619269765,-0.120434118488244,-0.206786615920442,-0.285305024653782,-0.271378858550239,-1.339869236882472
2022,603092,"Atherton, CA",CA,37.457072,-122.201058,7124,0.489408588168905,-3.09621051185626,-0.85414621669205,-0.508445108032339,-0.880290385613623,-4.849683634025367
2022,603274,"Avalon, CA",CA,33.343335,-118.317615,3441,-1.14901754144359,-0.485068199685698,-0.293741741032236,0.309122460278469,-0.332258766101026,-1.9509637879840809
2022,603330,"Avila Beach, CA",CA,35.199355,-120.720757,1599,1.49723133847123,-1.06178727187826,-0.301283136270171,-0.742498616686289,-0.899286487254252,-1.507624173617742
2022,603344,"Avocado Heights, CA",CA,34.036769,-118.001783,13470,-0.330382131421999,-0.19650872767403,0.0408161417590675,1.05524441113559,0.506820530797569,1.0759902245961976
2022,603386,"Azusa, CA",CA,34.138524,-117.912253,49704,-0.567606220965555,0.0361425697206725,0.371888635696662,1.03724836226797,0.351213781419502,1.2288871281392515
2022,603666,"Baldwin Park, CA",CA,34.082824,-117.971286,71692,-0.208817172094277,0.0973197722518919,0.579031614468105,2.07050436483461,0.693883261088582,3.231921840548912
2022,603694,"Ballard, CA",CA,34.630473,-120.111782,721,0.493940300561038,-0.948617427920149,0.256874178971924,-0.229105837313856,-0.861236475878649,-1.2881452615796922
2022,604415,"Bay Point, CA",CA,38.032254,-121.962236,24407,-0.533664925180881,0.233655716043343,0.291501426188173,2.00773544187571,1.04002492593207,3.039252584858415
2022,604470,"Bayview (Contra Costa County), CA",CA,38.006234,-122.320165,2529,-0.414238365352975,-0.728144863585391,-0.881227722282017,1.36252860298342,-0.0458456185395821,-0.7069279667765451
2022,604478,"Bayview (Humboldt County), CA",CA,40.765335,-124.178605,2719,0.387013888440683,0.924578633392791,1.58078418968048,-0.185741497297627,1.54596716802617,4.252602382242497
2022,604549,"Baywood Park, CA",CA,37.529194,-122.341666,1687,0.751452659427293,-2.38207019639859,-0.953140162814315,-0.665265972589843,-1.05561483350366,-4.304638505879115
2022,604870,"Bell, CA",CA,33.979704,-118.179249,33377,-0.150355857675507,0.53294207382942,1.22813537287692,2.57675500004547,1.25671878510027,5.444195374176573
2022,604938,"Bell Canyon, CA",CA,34.208134,-118.687588,1768,-0.0608943318273962,NA,-0.666246545307398,-0.546641720470317,-1.0168072152186,-2.290589812823711
2022,604982,"Bellflower, CA",CA,33.887821,-118.12725,78352,-0.470146961496097,0.195437198613684,0.415902254606726,1.11027191542672,0.697531587009724,1.9489959941607569
2022,604996,"Bell Gardens, CA",CA,33.964379,-118.154437,39263,-0.148562265245285,0.45465772423959,1.73954966196787,2.80076292669609,1.28609557454956,6.132503622207825
2022,605108,"Belmont, CA",CA,37.514398,-122.294475,27820,-0.924784214453163,-1.39973019652877,-0.346490738609789,0.136588021510789,-0.481549423158053,-3.015966551238986
2022,605164,"Belvedere, CA",CA,37.873567,-122.470995,2327,0.687863511231379,-2.40757520766494,-0.717287096976892,-0.425944610010614,-0.918984744460937,-3.7819281478820037
2022,605262,"Benbow, CA",CA,40.060267,-123.765381,153,0.348348346456298,NA,NA,-0.898497209652917,-0.207218841140515,-0.7573677043371341
2022,605290,"Benicia, CA",CA,38.072733,-122.155169,27040,-0.249524228069269,-0.689658466114253,-0.433971284781389,-0.00615647777212724,-0.579102893862126,-1.958413350599164
2022,605332,"Ben Lomond, CA",CA,37.078196,-122.088116,7247,-0.61168679155103,-0.93595431542676,-0.883576794063489,-0.304269397325246,-0.57114505045003,-3.306632348816555
2022,606000,"Berkeley, CA",CA,37.866972,-122.299147,121385,-0.337363394990527,-0.784238575598496,-0.416159804625508,-0.0642706896921715,-0.0266841793280093,-1.6287166442347116
2022,606150,"Bertsch-Oceanview, CA",CA,41.751727,-124.170214,2222,-0.183444307357812,1.23786417881553,-0.0494080850307535,-0.021322697833212,0.0157370527143824,0.999426141308135
2022,606210,"Bethel Island, CA",CA,38.02813,-121.629851,1993,0.769825392875145,0.699858550104289,0.477871023159066,-0.672894011217614,0.874640694099152,2.149301649020038
2022,606308,"Beverly Hills, CA",CA,34.07923,-118.402437,32406,0.064874177196668,-1.29759395157774,-0.0984029727152878,0.232114862767093,-0.216478713388154,-1.3154865977174206
2022,606567,"Big Lagoon, CA",CA,41.159361,-124.129868,104,1.28710038961166,NA,NA,0.0315175082333097,-0.15768970536528,1.1609281924796897
2022,606928,"Blackhawk, CA",CA,37.809629,-121.913241,10622,0.251927795711384,-2.53510026399666,-0.545501892478302,-0.495607147780937,-0.714321139033542,-4.038602647578057
2022,606935,"Blacklake, CA",CA,35.049689,-120.538642,824,1.82238327320569,NA,-0.696391648512439,-0.965547528744451,-1.29362188805439,-1.13317779210559
2022,606982,"Black Point-Green Point, CA",CA,38.110651,-122.519097,1684,0.390621156428658,-2.12147555762418,-0.832514750698499,-0.531559697923032,-0.902987164553294,-3.997916014370347
2022,607036,"Bloomfield, CA",CA,38.322069,-122.834464,197,-0.585845204652137,NA,-0.655408944560782,-0.824367610293299,-0.899286487254252,-2.96490824676047
2022,607162,"Blue Lake, CA",CA,40.883201,-123.994716,841,0.10232420445861,0.704842804212423,1.09938032675796,-0.457708366556022,0.436424164390532,1.885263133263503
2022,607246,"Bodega, CA",CA,38.348841,-122.971164,547,1.74970068574713,NA,0.256885452729346,-0.818970054807491,1.54089974103717,2.728515824706155
2022,607260,"Bodega Bay, CA",CA,38.327215,-123.02923,1186,0.0375723410706042,-0.875505944455783,-0.771438143147104,-0.576960949956801,-0.392593517333223,-2.578926213822307
2022,607316,"Bolinas, CA",CA,37.917725,-122.709502,1280,1.00637586959066,-0.314113567529481,0.43754876681015,-0.0779144421728198,-0.360879541655406,0.691017085043103
2022,607414,"Bonita, CA",CA,32.64085,-117.065305,13473,-0.1008592965488,-0.830290445312825,-0.471447553662626,0.154280250320985,-0.1894257325442,-1.4377427777474658
2022,607470,"Bonny Doon, CA",CA,37.04348,-122.136848,2858,0.36842945639108,-0.985893360567727,-0.295545477908468,-0.509029211879116,-0.586373935363091,-2.0084125293273223
2022,607498,"Bonsall, CA",CA,33.274876,-117.191863,4131,0.173922253068323,-0.31578897261646,-0.14169708398138,-0.40158108880782,0.596260305842891,-0.08888458649444597
2022,607512,"Boonville, CA",CA,39.011474,-123.374043,995,0.9428826667672,0.389181459103118,-0.711162956132146,0.0526321801889949,-0.222107166147328,0.45142618377983895
2022,607578,"Boronda, CA",CA,36.694632,-121.67451200000001,1885,-0.265901780424279,0.215192750450928,-0.270275604315785,1.67934287022813,0.727672257273813,2.0860304932128066
2022,607596,"Borrego Springs, CA",CA,33.240962,-116.357118,2946,0.865501009530153,1.2793749846817,-0.86284589804748,0.0799457398283681,-0.974176000729719,0.3877998352630222
2022,607624,"Bostonia, CA",CA,32.818985,-116.942264,16850,-0.388023566070058,0.564895957597127,0.422689343636639,0.383077179205664,0.485146417912652,1.4677853322820238
2022,607652,"Boulder Creek, CA",CA,37.1341,-122.127207,5492,-0.105607545599838,-0.640855559070785,-0.820816083631666,-0.862461475239178,-0.370685852809366,-2.800426516350833
2022,607694,"Boulevard, CA",CA,32.664022,-116.289601,359,0.764750632129814,NA,NA,-1.25962787563715,0.408021091485338,-0.08685615202199798
2022,607848,"Boyes Hot Springs, CA",CA,38.312633,-122.488738,7374,-0.0797723092396339,-0.217075495249532,-0.104990312416609,0.599213095507167,0.0136841318328164,0.2110591104342084
2022,607946,"Bradbury, CA",CA,34.153159,-117.968818,767,0.0704664927657289,NA,-0.241826360319363,-0.234722469470725,-0.411403804550248,-0.8174861415746071
2022,607974,"Bradley, CA",CA,35.86284,-120.804268,85,1.38052024791208,NA,-1.06722408756567,0.683880951530159,-1.33648443161962,-0.33930731974305106
2022,608100,"Brea, CA",CA,33.925178,-117.865111,47099,-0.611080421706924,-0.685115795619231,-0.362139767550832,0.275759645021782,-0.381725525446157,-1.7643018653013618
2022,608142,"Brentwood, CA",CA,37.935567,-121.718967,64443,-0.241446734282588,-1.30325647161473,-0.390666826589086,0.124605645678251,-0.31785854866119,-2.128622935469343
2022,608310,"Brisbane, CA",CA,37.67575,-122.383302,4756,-0.804583099813475,-1.03700078950391,-0.181985770448658,0.811967045466625,0.149163903361146,-1.0624387109382718
2022,608338,"Broadmoor, CA",CA,37.691424,-122.48114700000001,4419,-0.631150917159879,-1.48906722285435,-0.898615305486354,1.08702398055653,-0.568755729853209,-2.500565194797262
2022,608478,"Brookdale, CA",CA,37.105732,-122.110627,1128,-0.429529799198196,-0.160621415381369,-0.847813560394194,-0.715021886801196,-0.19340496796398,-2.3463916297389353
2022,608530,"Brooktrails, CA",CA,39.443283,-123.3938,4440,-0.598241061227702,0.358422593456312,-0.698451367969329,-0.0571545189496738,-0.0246136287764118,-1.0200379834668047
2022,608758,"Buellton, CA",CA,34.615497,-120.194237,5151,-1.22640839205564,-0.316871996687297,-0.943333104206016,0.449727329406737,-0.843084824896999,-2.879970988439215
2022,608786,"Buena Park, CA",CA,33.857353,-118.007373,83542,-0.70126423095179,-0.397506284246443,-0.126113578865708,0.854631611455554,0.070165396053388,-0.30008708655499894
2022,608954,"Burbank city, CA",CA,34.190079,-118.326405,106389,-0.688176329422147,-0.470468687009723,0.153569189699287,0.691501060643005,-0.07168293825303,-0.38525770434260803
2022,608968,"Burbank CDP, CA",CA,37.321106,-121.930575,5234,-1.64358775296131,-0.695588524375585,-0.137812881725745,0.684736297376896,-0.618573079059939,-2.410825940745683
2022,609066,"Burlingame, CA",CA,37.589952,-122.363342,30995,-0.916417807661627,-1.22693055370655,-0.562981625304115,0.413438296467917,-0.548791953277656,-2.8416836434820305
2022,609346,"Byron, CA",CA,37.875634,-121.642121,1918,0.868465799662726,-0.92506269560257,-0.401401226087023,-0.0340579119894782,0.391133441574018,-0.10092259244232726
2022,609598,"Calabasas, CA",CA,34.134015,-118.669128,23106,-0.365482680072411,-1.75067778462134,-0.44570881825152,0.11482990779912,-0.222800332208555,-2.669839707354706
2022,609835,"California Polytechnic State University, CA",CA,35.306981,-120.667276,6983,1.1460887984336,NA,-1.06722408756567,-0.919727057557638,-0.920826047346713,-1.7616883940364212
2022,609892,"Calistoga, CA",CA,38.581408,-122.582696,5191,-0.292754266650695,0.53261272162433,-0.407580184006374,0.743946756689704,-0.119548919562777,0.456676108094188
2022,609948,"Callender, CA",CA,35.047972,-120.575908,2444,-1.19786314220464,-0.729802830063056,-0.757964612849828,-0.130396940145224,-1.0214995073107,-3.837527032573448
2022,609990,"Calpella, CA",CA,39.233721,-123.19376,674,-0.0687461887241112,NA,-1.06722408756567,0.605434284565966,0.256054698250041,-0.27448129347377415
2022,610046,"Camarillo, CA",CA,34.221823,-119.032154,70622,-0.0345110269300882,-0.880026853419019,-0.353710968967734,0.157931611820021,-0.415675762694767,-1.5259930001915873
2022,610074,"Cambria, CA",CA,35.552479,-121.084527,5825,1.1225319451566,-0.338398269054219,-0.31013907893626,-0.134723834090831,-0.444037191410593,-0.10476642833530297
2022,610088,"Cambrian Park, CA",CA,37.256288,-121.928871,3551,-0.658616420843178,-2.02453760101091,-0.604538160773371,0.0441691877789924,-0.829236499101014,-4.07275949394948
2022,610301,"Camino Tassajara, CA",CA,37.790879,-121.885041,6238,0.127668825973235,-1.86855890261334,-0.45586979100983,0.129645804582328,-0.648782643407781,-2.7158967064753883
2022,610345,"Campbell, CA",CA,37.280235,-121.953276,43464,-0.822373925435227,-1.19578467743133,-0.483013729687742,0.400241449610439,-0.61440631619862,-2.71533719914248
2022,610508,"Campo, CA",CA,32.640965,-116.474516,3468,-0.132604786287387,0.641940244567625,1.26987133985739,0.516111041664379,1.15177910254292,3.4470969423449267
2022,610554,"Camp Pendleton Mainside, CA",CA,33.307209,-117.331048,9599,-0.786144109517127,NA,NA,-0.0357158390333912,-0.659354595594996,-1.481214544145514
2022,610561,"Camp Pendleton South, CA",CA,33.229342,-117.381542,13936,-1.21467887766684,NA,NA,0.224884730666338,-0.368444442166377,-1.3582385891668791
2022,611040,"Capitola, CA",CA,36.976083,-121.954012,9921,-0.157116643057939,-0.31012632198786,0.388767621507814,0.0684040430925566,-0.222559628751869,-0.23263092919729736
2022,611194,"Carlsbad, CA",CA,33.129284,-117.284183,114745,-0.406532892115498,-1.17500123736367,-0.460063825047512,-0.235348355421223,-0.44144847716352,-2.7183947871114236
2022,611250,"Carmel-by-the-Sea, CA",CA,36.552967,-121.921963,3239,0.590032092692752,-1.09325953127173,-0.791386175140219,-0.608449836531681,-0.846064755326922,-2.7491282055778
2022,611324,"Carmel Valley Village, CA",CA,36.500627,-121.73182,4642,0.670356164639916,-0.949493939944935,-0.511241390671607,-0.762127938690516,-0.733706069897962,-2.2862131745651038
2022,611376,"Carmet, CA",CA,38.374452,-123.071859,60,4.66022140375115,NA,NA,0.503650369568845,-1.33648443161962,3.827387341700375
2022,611446,"Carpinteria, CA",CA,34.385234,-119.500759,13187,-0.30154418559307,-0.373594041419539,-0.520857426373411,0.316860982140461,-0.263749678142934,-1.1428843493884928
2022,611530,"Carson, CA",CA,33.840367,-118.249574,94475,-0.18419756363462,-0.082633474253677,-0.047551927863353,0.838017827926914,0.223387530166174,0.747022392341438
2022,611656,"Casa Conejo, CA",CA,34.184731,-118.944517,2711,-1.07392208670318,-1.3863552319704,-0.602512805063585,0.135649910480721,-0.558466115081133,-3.4856063283375773
2022,611691,"Casa de Oro-Mount Helix, CA",CA,32.763961,-116.968807,20055,0.157398271678057,-0.791031023785273,-0.248895379553779,-0.175176448534785,-0.160076799930083,-1.217781380125863
2022,611754,"Casmalia, CA",CA,34.837589,-120.531071,64,1.63383146255502,NA,NA,5.73574017564978,-0.599248682297625,6.770322955907175
2022,611768,"Caspar, CA",CA,39.363063,-123.804194,360,0.226939811155625,NA,-0.722189778561575,0.523395381435006,-1.13503047686303,-1.106885062833974
2022,611796,"Castaic, CA",CA,34.477544,-118.6264,18643,-0.678705508745521,-0.653486184131374,-0.596712733185842,0.458545248797725,-0.530152782404321,-2.000511959669333
2022,611915,"Castle Hill, CA",CA,37.872955,-122.057337,1010,-0.272903746610373,NA,-1.06722408756567,-0.485302037932152,-1.30219439676744,-3.127624268875635
2022,611964,"Castro Valley, CA",CA,37.708276,-122.062769,65444,-0.445686619899806,-1.04768376995994,-0.426226630813398,0.549476333971572,-0.442516455071234,-1.8126371417728058
2022,611978,"Castroville, CA",CA,36.764838,-121.753374,6620,-0.225119642017751,0.496223862164197,0.591473527821883,2.11836101914013,0.18752575063584,3.168464517744299
2022,612132,"Cayucos, CA",CA,35.439581,-120.889828,2361,0.297173670857965,-0.0341567970629644,-0.266211488319364,-0.497374329969961,-0.682305293491178,-1.1828742379855024
2022,612146,"Cazadero, CA",CA,38.527831,-123.109799,419,-0.467173712425893,0.4333159429946,-0.561269801936891,0.0985381455072827,-0.242587359900251,-0.7391767857611524
2022,612552,"Cerritos, CA",CA,33.867745,-118.069471,49016,0.227635019592733,-1.24419867041114,-0.500934867017408,0.606682350921364,-0.515969439684363,-1.426785606598814
2022,612669,"Channel Islands Beach, CA",CA,34.161093,-119.225277,2708,-0.838847743809409,-0.646340852454854,-0.408826647097606,0.73754879812703,-0.660906097599868,-1.8173725428347067
2022,612734,"Charter Oak, CA",CA,34.102483,-117.856315,9335,-0.528907162108122,0.0997999623005474,0.439162238139569,0.897552304553956,0.392271616342937,1.2998789592288873
2022,612902,"Cherryland, CA",CA,37.679159,-122.103755,15499,-0.186695144086297,-0.0695225488992659,0.295617243671285,1.49116888816773,0.821728313868244,2.352296752721696
2022,613214,"Chino Hills, CA",CA,33.942969,-117.725648,78223,-0.460737650985524,-1.03872857658904,-0.318952497947386,0.736729853462891,-0.330053398309468,-1.411742270368527
2022,613364,"Chualar, CA",CA,36.571113,-121.510295,959,-0.371370259185016,0.568301593397415,1.66274592461407,2.22183749955265,0.835656726015572,4.917171484394691
2022,613392,"Chula Vista, CA",CA,32.62767,-117.01517,276103,-0.493347565640358,-0.393407722674808,-0.112688907729238,0.590023370869512,0.316274618416002,-0.09314620675888996
2022,613560,"Citrus, CA",CA,34.110456,-117.893487,10979,-0.431706438680877,-0.354185085319932,0.0352867927493927,0.667540594326895,0.606974438022793,0.5239103010982719
2022,613756,"Claremont, CA",CA,34.124925,-117.713923,36891,0.0981305130033285,-0.794963153098074,-0.436645616341856,0.089579222643747,-0.556298982672852,-1.6001980164657064
2022,613882,"Clayton, CA",CA,37.94032,-121.930076,11070,-0.105946322777457,-2.21783863946869,-0.914305993477105,-0.261527971834468,-0.813732756721493,-4.313351684279214
2022,614008,"Cleone, CA",CA,39.490154,-123.775692,774,-0.12376977228076,NA,-1.06722408756567,0.0603933733623572,1.33696209056875,0.20636160408467719
2022,614190,"Cloverdale, CA",CA,38.796143,-123.01506,8964,-0.0152664411398192,0.0991999919864896,-0.557190538825663,0.212587618974942,0.164908631986115,-0.09576073701793564
2022,614232,"Clyde, CA",CA,38.0254,-122.02806,721,0.017047911128149,0.287668451834416,-1.06722408756567,0.424294103869965,-0.560761292197135,-0.898974912930275
2022,614736,"Colma, CA",CA,37.676698,-122.452692,1376,-0.585703178079983,-0.750971201489507,0.204104126102814,2.15577501068158,-0.0733090829062888,0.9498956743086151
2022,614974,"Commerce, CA",CA,33.994523,-118.149952,12253,0.153044693869374,0.310346283499515,0.542614100350014,2.08881894537231,0.827965977994496,3.922790001085709
2022,615030,"Comptche, CA",CA,39.265134,-123.589715,128,0.0375658520119504,NA,NA,-1.25962787563715,0.270860952076594,-0.9512010715486056
2022,615044,"Compton, CA",CA,33.894047,-118.227469,94822,-0.229397357581505,0.338829472538365,1.04539891221126,1.48724965493887,0.990945656750531,3.633026338857521
2022,616000,"Concord, CA",CA,37.972186,-122.001607,125007,-0.582651360679263,-0.479264501895428,-0.207412519958719,0.867272430972809,-0.159638787703098,-0.5616947392636991
2022,616378,"Coronado, CA",CA,32.657625,-117.156539,18871,0.026649456602979,-1.56998879512494,-0.554292616710454,-0.377669301211919,-0.708823367254592,-3.184124623698926
2022,616434,"Corralitos, CA",CA,36.98423,-121.789432,2154,-0.0462988626600502,-1.96018591484263,-0.805087233938607,-0.92732765776304,-0.187144851640202,-3.926044520844529
2022,616462,"Corte Madera, CA",CA,37.931846,-122.507738,10155,-0.488673207186036,-1.89044857424479,-0.61969531750352,-0.304531719765322,-0.829785636589557,-4.133134455289225
2022,616532,"Costa Mesa, CA",CA,33.665905,-117.912336,111490,-1.03331097610065,-0.545229796408938,-0.138506912166395,0.568111598641948,-0.00249943924638534,-1.1514355252804203
2022,616560,"Cotati, CA",CA,38.328492,-122.710049,7545,-0.780438999648988,-0.117266522288742,-0.388826685336776,0.290975731081728,-0.432904573887969,-1.428461050080747
2022,616580,"Coto de Caza, CA",CA,33.597037,-117.586484,15632,-0.626777117703702,-3.09621051185626,-0.641380807237237,-0.431147361484002,-0.85043211788182,-5.6459479161630215
2022,616728,"Covelo, CA",CA,39.800187,-123.252601,1359,0.686534422396465,NA,2.51445739916158,1.26694234610389,2.22333686934726,6.691271037009194
2022,616742,"Covina, CA",CA,34.090475,-117.882143,50717,-0.740285285862308,-0.147943359507421,-0.19964699325074,0.836306660486147,0.0488997283249291,-0.202669249809393
2022,617022,"Crescent City, CA",CA,41.764514,-124.200779,6379,1.28699415040409,1.09121890111442,0.932418689938629,0.634413127865597,1.79962521933524,5.744670088657976
2022,617106,"Crest, CA",CA,32.80002,-116.867078,3179,0.677836941124177,-0.803162444579998,-0.580257448600974,-0.515299487408898,-0.497182733501788,-1.7180651729674807
2022,617232,"Creston, CA",CA,35.517097,-120.518136,0,NA,NA,NA,NA,NA,0
2022,617274,"Crockett, CA",CA,38.051919,-122.220127,3574,-0.145922497898097,-0.542031132277266,0.461156735066107,-0.301639489577031,-0.163088918568973,-0.69152530325526
2022,617498,"Cudahy, CA",CA,33.964003,-118.182561,22657,-0.409065228420295,0.390091980140659,1.77555562096014,2.75959526460319,1.66722054170635,6.1833981789900445
2022,617568,"Culver City, CA",CA,34.00582,-118.396781,40357,-0.792231513112749,-0.860991917135122,-0.433442961780178,0.284782874470883,-0.472939906491118,-2.2748234240482836
2022,617610,"Cupertino, CA",CA,37.3194,-122.044957,59763,-0.337041238614086,-1.86948673180642,-0.590626267932401,0.162048112428294,-0.80601433884412,-3.441120464768733
2022,617722,"Cutten, CA",CA,40.765675,-124.144566,3309,0.467125481972704,-0.222928762462591,-0.670662463182861,-0.296276665320233,-0.108484933085265,-0.831227342078246
2022,617727,"Cuyama, CA",CA,34.931057,-119.61488,9,1.45396863000956,NA,NA,0.645637342004103,-1.33648443161962,0.7631215403940428
2022,617750,"Cypress, CA",CA,33.818477,-118.038307,49955,-0.362145732639903,-0.822709171000696,-0.292086544353359,0.520564562926308,-0.396633801278057,-1.353010686345707
2022,617918,"Daly City, CA",CA,37.700835,-122.500791,103648,-0.497505608251023,-0.854906153705901,-0.272674484832763,1.67085807073347,-0.180788809034755,-0.135016985090972
2022,617946,"Dana Point, CA",CA,33.475452,-117.693087,33025,-0.182705424963274,-1.27400292939131,-0.46507634657497,-0.178385206743965,-0.447175669886819,-2.547345577560338
2022,617988,"Danville, CA",CA,37.812141,-121.969822,43449,-0.273565871999252,-2.35656518513224,-0.695561219408694,-0.450582205258646,-0.787998911824969,-4.564273393623801
2022,618086,"Davenport, CA",CA,37.02159,-122.194305,650,-0.289591991475284,-0.427584670538155,-0.548386447356055,1.40607885373121,0.50127055555427,0.641786299915986
2022,618153,"Day Valley, CA",CA,37.025439,-121.855931,3252,0.929664958772711,-0.356483903413295,-0.71687610768053,0.104279840801813,-0.642022010975193,-0.6814372224944939
2022,618324,"Deer Park, CA",CA,38.535176,-122.470152,835,-0.0473834468849133,-0.58258242993211,-1.06722408756567,-0.8229652771367,-0.658259387592725,-3.178414629112118
2022,618352,"Del Aire, CA",CA,33.916712,-118.369292,10756,-0.500428236907698,-1.05049531859769,-0.078996733697774,0.870080418847976,-0.336271535551457,-1.0961114059066428
2022,618422,"Del Dios, CA",CA,33.075682,-117.119036,252,0.357030145294927,NA,-1.06722408756567,-0.642685527689545,-0.167423978501524,-1.520303448461812
2022,618506,"Del Mar, CA",CA,32.962852,-117.262438,3956,-0.198974950358483,-1.47322366140246,-0.793814867382236,-0.438145799646963,-1.0565048090463,-3.960664087836442
2022,618590,"Del Monte Forest, CA",CA,36.583834,-121.946714,3416,1.53681857339816,-2.30555516259955,-0.862955006229507,-0.569335625272658,-0.951164808483604,-3.152192029187159
2022,618688,"Del Rey Oaks, CA",CA,36.582501,-121.829797,1611,-0.166242015371544,-1.15518789686233,-0.181985770448658,-0.321296970722712,-0.14110246143665,-1.965815114841894
2022,618940,"Descanso, CA",CA,32.869571,-116.627874,1425,-0.651136677639613,-0.980431846171297,-0.771438143147104,-0.396042396505497,-1.22980625450063,-4.02885531796414
2022,619052,"Desert View Highlands, CA",CA,34.590259,-118.153537,3275,0.554925217076277,-0.037381733407643,-0.77431829895023,2.12431020080255,0.421457716737462,2.288993102258416
2022,619150,"Diablo, CA",CA,37.840808,-121.956456,772,0.801574024293371,NA,-0.410830749273788,0.604968019780795,0.0290473942240988,1.0247586890244766
2022,619192,"Diamond Bar, CA",CA,34.001573,-117.817601,54534,-0.160682964977462,-0.89260439579331,-0.139941825939701,1.23146981322845,-0.369072621576829,-0.3308319950588519
2022,619262,"Dillon Beach, CA",CA,38.243488,-122.955955,442,-0.234470009927894,NA,-1.06722408756567,0.175787995657215,-0.669699106848496,-1.795605208684845
2022,619339,"Discovery Bay, CA",CA,37.905173,-121.606277,15362,-0.166823624354321,-1.61554549251307,-0.393286810034649,-0.345613324404876,-0.37177906710066,-2.893048318407576
2022,619402,"Dixon, CA",CA,38.447512,-121.824223,19071,-0.906305861287775,-0.135784408002778,-0.234736626788402,0.319191267767488,-0.280757585321559,-1.2383932136330258
2022,619766,"Downey, CA",CA,33.938237,-118.130856,113052,-0.514396473290016,-0.161794828592775,-0.0868894547083892,1.45142468768244,0.179001003069387,0.8673449341606467
2022,619990,"Duarte, CA",CA,34.160972,-117.950441,21686,0.0788520879240633,-0.317626858315851,-0.219206446738938,1.29955368184011,-0.0746205909914884,0.766951873717896
2022,620018,"Dublin, CA",CA,37.716151,-121.896224,71068,-0.996996632677936,-1.75414488206562,-0.61639878557068,0.268958667931014,-0.726668744432403,-3.8252503768156245
2022,620574,"Eastern Goleta Valley, CA",CA,34.443913,-119.785477,29563,0.119328554004595,-1.19393912166473,-0.560897885362329,0.0210748966262691,-0.486546340466345,-2.10097989686254
2022,620598,"East Foothills, CA",CA,37.382667,-121.81378,8270,-0.60434593323998,-2.02709614434093,-0.750965371930445,0.215988380427128,-0.618347653910116,-3.784766722994343
2022,620802,"East Los Angeles, CA",CA,34.031506,-118.168567,117222,-0.200756597952094,0.416640405330099,0.843340015836292,2.03880856493347,1.20222184419147,4.300254232339237
2022,620956,"East Palo Alto, CA",CA,37.46778,-122.13255,29520,-0.787662774375962,-0.584153807280005,0.434808382563074,1.50827540310128,0.318892834616455,0.890160038624842
2022,620984,"East Pasadena, CA",CA,34.136798,-118.077535,5474,0.0983094274001709,-0.781380830229051,-0.374142756943915,1.13876953624362,-0.36623569787256,-0.284680321401735
2022,621034,"East Rancho Dominguez, CA",CA,33.894834,-118.195587,14924,-0.264205370577352,0.432308939223036,1.20356135449808,1.62724125791632,1.52393684829817,4.522843029358254
2022,621061,"East Richmond Heights, CA",CA,37.945081,-122.313907,3285,-0.821780991105874,-0.541830723254059,-0.679587494468686,-0.0767873081504517,-0.404189038343075,-2.524175555322146
2022,621096,"East San Gabriel, CA",CA,34.119646,-118.080235,22654,-0.276701254341766,-0.528058206074793,0.0721689684695174,1.71900985710685,-0.0666086462139583,0.9198107189458499
2022,621292,"East Whittier, CA",CA,33.924373,-117.988726,10248,-0.260451376480033,-0.322875316452589,-0.364279987232972,0.602041172840137,-0.453497091497436,-0.799062598822893
2022,621565,"Edna, CA",CA,35.210786,-120.605967,355,2.02896479798684,NA,-1.06722408756567,-0.493516998160466,-1.33648443161962,-0.8682607193589161
2022,621712,"El Cajon, CA",CA,32.801672,-116.960465,105721,-0.252674419888105,0.158758997206853,0.967741337295085,0.759763400126986,0.571953303118351,2.20554261785917
2022,621796,"El Cerrito, CA",CA,37.91963,-122.302516,25869,-0.573820014698365,-1.03124347474384,-0.469657490345079,0.427187337077791,-0.37563131525564,-2.023164957965133
2022,621894,"Eldridge, CA",CA,38.333887,-122.506518,730,-0.027742952641451,-0.614175035706012,-0.702038661628732,-0.522795235050821,0.255712613228959,-1.6110392717980568
2022,621916,"Elfin Forest, CA",CA,33.081232,-117.177443,595,0.39728932024502,NA,-0.713842174311476,-0.240809129044237,-0.834431021006707,-1.3917930041174
2022,621936,"El Granada, CA",CA,37.52092,-122.47082,5651,-0.556380507008251,-1.58324984096416,-0.886246622065555,-0.584828811622817,-0.145438824146653,-3.756144605807436
2022,621964,"Elizabeth Lake, CA",CA,34.656488,-118.379847,1764,-0.0832150367130344,0.192860688525893,-0.908701550430013,-0.547498219887986,-0.5496026896886,-1.8961568081937403
2022,622034,"Elkhorn, CA",CA,36.810673,-121.718699,1285,0.329795850996124,-0.558729586918512,-0.805380792506611,-0.379289481004468,-0.0213533546423268,-1.4349573640757938
2022,622146,"Elmira, CA",CA,38.352328,-121.907719,141,-3.30243571776179,NA,NA,-1.25962787563715,-0.577817410515008,-5.139881003913948
2022,622230,"El Monte, CA",CA,34.074633,-118.029136,108682,-0.150117565084181,0.304648912747794,0.950259908345554,2.18963266917629,0.933918624095335,4.228342549280792
2022,622300,"El Paso de Robles (Paso Robles), CA",CA,35.627885,-120.650261,31595,-0.187119436050529,-0.117373381722179,0.0367847114671269,0.341807590567011,0.040287076096605,0.11438656035803493
2022,622370,"El Rio, CA",CA,34.24528,-119.156865,6418,-0.321046551184785,-0.367780585732484,0.751671311305572,0.516797666717675,1.23696007260897,1.816601913714948
2022,622412,"El Segundo, CA",CA,33.910367,-118.425079,17081,-1.29848754148921,-1.08179219263886,-0.478462275391408,-0.204555082570962,-0.587539077212781,-3.650836169303221
2022,622454,"El Sobrante, CA",CA,37.980052,-122.306811,15497,-0.380318092832581,-0.357879409438424,-0.244344550457408,0.963216209623411,0.0293213365711871,0.00999549346618514
2022,622510,"El Verano, CA",CA,38.297465,-122.491544,3034,0.21211980555842,-0.415826873357513,-0.888671574820671,0.48866894618297,-0.229199978552175,-0.8329096749889691
2022,622587,"Emerald Lake Hills, CA",CA,37.46566,-122.265351,4425,-0.54588883738833,-2.38207019639859,-0.994489838938152,-0.552942385461237,-1.14212328926788,-5.6175145474541885
2022,622594,"Emeryville, CA",CA,37.838473,-122.301682,12840,-1.57836776332828,-0.425331886181304,0.182632597341283,0.143098323327248,-0.344045565699268,-2.022014294540321
2022,622678,"Encinitas, CA",CA,33.050632,-117.263616,61942,-0.346124312701062,-1.2672152649496,-0.401775863666,-0.0781138540581716,-0.583200057768447,-2.6764293531432806
2022,622804,"Escondido, CA",CA,33.133053,-117.074043,151114,-0.377344544919054,-0.0483104959145809,0.185764067849951,0.759567096534568,0.106220633003618,0.6258967565545022
2022,623000,"Eucalyptus Hills, CA",CA,32.885177,-116.944983,6491,-0.155426859020397,-0.830072384533681,-0.731464161753285,-0.52477095067554,-1.00965607892275,-3.2513904349056526
2022,623042,"Eureka, CA",CA,40.793401,-124.155246,26519,-0.215648981664482,0.669870119017252,0.490107484737404,-0.120440462834483,0.617444254453281,1.441332413708972
2022,623150,"Fairbanks Ranch, CA",CA,32.991596,-117.186611,3014,0.924800774365631,NA,0.700806828105214,-0.0320671766795548,0.100677474023644,1.6942178998149342
2022,623168,"Fairfax, CA",CA,37.988532,-122.595208,7567,-0.706747739747657,-0.959252816825118,-0.105252544757629,-0.232856552858719,0.0111790922737041,-1.992930561915419
2022,623182,"Fairfield, CA",CA,38.259827,-122.032457,119420,-0.3623181361747,-0.46004811191184,-0.136793552579716,0.400051832544321,-0.0616325585673809,-0.6207405266893159
2022,623196,"Fairhaven, CA",CA,40.788293,-124.201421,341,-1.03765322856276,0.0268816541644413,-1.01713846206507,-0.797634790266367,1.10769711227592,-1.717847714453836
2022,623350,"Fairview, CA",CA,37.677667,-122.044434,10583,-0.364499613714536,-1.11170273131252,-0.874706404788554,0.300042575426083,-0.67376889274671,-2.724635067136237
2022,623462,"Fallbrook, CA",CA,33.374235,-117.220375,33710,0.0110713566718107,-0.109884083983577,0.317136301379065,0.783522313512698,0.210597840710885,1.2124437282908818
2022,623826,"Felton, CA",CA,37.039221,-122.080473,3701,-0.401443298321219,-0.778999135820713,-0.719714886058449,-0.612289014755049,-0.802300399531593,-3.314746734487023
2022,623910,"Ferndale, CA",CA,40.579891,-124.261909,1569,0.703876608983318,0.246968931261327,-0.189644365182298,-0.270873482509605,0.10611204261467,0.596439735167412
2022,623973,"Fetters Hot Springs-Agua Caliente, CA",CA,38.327504,-122.487137,4224,-1.05765074998312,-0.13195780242075,0.150040283935887,1.02302156855784,-0.188611364752406,-0.2051580646625489
2022,624008,"Fieldbrook, CA",CA,40.972958,-124.028586,777,0.254748128456912,-0.094346509241116,-0.739369049897096,-0.592327441272094,-0.522731296763767,-1.694026168717161
2022,624022,"Fields Landing, CA",CA,40.724236,-124.218603,629,0.170669191224324,NA,NA,-0.273870552852834,2.73108517006113,2.6278838084326197
2022,624092,"Fillmore, CA",CA,34.398423,-118.916096,16455,-0.471376941475521,-0.0827284632216882,-0.320866201583868,0.468943834154794,0.0604358952241732,-0.34559187690210996
2022,624477,"Florence-Graham, CA",CA,33.968159,-118.244667,63132,-0.198359203243387,0.415148854254055,1.20348720127413,3.19852654592507,1.78479348683539,6.403596885045258
2022,624960,"Forestville, CA",CA,38.482491,-122.889884,3632,-0.588024274949708,-0.126818028547789,-0.534153646780289,-0.37157147732427,-0.454493047208351,-2.075060474810407
2022,625058,"Fort Bragg, CA",CA,39.439803,-123.801757,7007,0.722949387156201,0.816353729554033,0.573136289275188,0.481376805103765,0.517557436367075,3.111373647456262
2022,625086,"Fort Dick, CA",CA,41.869526,-124.167206,1295,1.27701051981694,NA,-1.06722408756567,-0.539032210645609,0.732008759524794,0.40276298113045494
2022,625093,"Fort Hunter Liggett, CA",CA,35.992329,-121.23487,874,NA,NA,NA,NA,NA,0
2022,625296,"Fortuna, CA",CA,40.587084,-124.142161,12527,0.00975086529449418,0.752014244209897,0.189987305250406,-0.304742619742684,0.222847878688776,0.8698576737008892
2022,625338,"Foster City, CA",CA,37.56482,-122.250782,33215,-0.552359355838496,-1.7419616754747,-0.695488526195986,0.448068810331872,-0.620748137940126,-3.162488885117436
2022,625380,"Fountain Valley, CA",CA,33.710582,-117.951129,56754,-0.133528153804064,-1.03630585562891,-0.366838099909798,0.484339946963965,-0.217707924910906,-1.270040087289713
2022,625576,"Freedom, CA",CA,36.940245,-121.795245,3360,-0.634515673989408,0.0532453833565851,-0.112933631833165,0.955125516083559,0.278695312355239,0.5396169059728102
2022,626000,"Fremont, CA",CA,37.501048,-122.083934,228795,-0.676161548250827,-1.30942603957614,-0.426854584241889,0.481745245243046,-0.561850707903685,-2.492547634729495
2022,627080,"Fruitdale, CA",CA,37.311711,-121.935765,1219,-1.24965207423992,-1.3432719888106,0.78280052056137,0.093811137491141,-0.579535413089921,-2.29584781808793
2022,628000,"Fullerton, CA",CA,33.885714,-117.928025,142280,-0.466633827555726,-0.452998828348535,-0.0268369026464426,0.767971607389491,0.0779448233904971,-0.10055312777071548
2022,628014,"Fulton, CA",CA,38.493709,-122.773417,749,0.613392284347092,NA,2.06119692734563,0.0218199307634013,-0.226344553280102,2.4700645891760216
2022,628154,"Garberville, CA",CA,40.100306,-123.794315,1815,-0.188122310265238,0.798186516725793,3.15726719932395,-0.226264499970068,1.75864440986297,5.299711315677407
2022,628168,"Gardena, CA",CA,33.894417,-118.307522,60377,-0.47482072403301,0.179944084478197,0.0859409927309275,1.64053003942668,0.252187558784277,1.6837819513870715
2022,628210,"Garden Farms, CA",CA,35.415782,-120.614034,370,1.11790531890347,NA,1.2271289639075,-0.299856258814295,0.432857032246743,2.478035056243418
2022,629000,"Garden Grove, CA",CA,33.778782,-117.960472,171637,-0.41769228142222,-0.168845709768768,0.366175715694537,1.62618074815297,0.441378414228705,1.8471968868852238
2022,629070,"Garey, CA",CA,34.885821,-120.31375,52,0.286740646764386,NA,0.0965238904745854,-0.995157367670749,0.136584971668509,-0.47530785876326864
2022,629154,"Gasquet, CA",CA,41.836075,-123.976031,366,1.31901633304022,NA,2.01861410503374,-0.876125751346413,1.34444687454512,3.805951561272667
2022,629420,"Geyserville, CA",CA,38.717314,-122.903423,837,-0.418961235821884,-0.0964755545817374,-0.205230999961783,0.321650950812389,-0.531603246534413,-0.9306200860874285
2022,629504,"Gilroy, CA",CA,37.006407,-121.585321,58696,-0.578813502796828,-1.12804052074881,-0.312302816154598,0.801830740523169,-0.0113377398861455,-1.2286638390632125
2022,630000,"Glendale, CA",CA,34.181393,-118.24583,194512,-0.330930795876512,-0.566355369598081,0.401579662483956,1.50496441420369,0.14138693486173,1.1506448460747831
2022,630014,"Glendora, CA",CA,34.144964,-117.847804,52095,-0.163223302822446,-0.641496193174335,-0.337013085877359,0.222607263532867,-0.333955042498341,-1.2530803608396142
2022,630028,"Glen Ellen, CA",CA,38.355323,-122.543306,998,-1.18064007802948,NA,-0.661296628358848,-0.664374051081919,0.093014293085263,-2.413296464384984
2022,630378,"Goleta, CA",CA,34.435438,-119.858964,32640,-0.730341524456133,-0.638213907281092,-0.262901179559877,0.243393985169258,-0.125539041896101,-1.513601668023945
2022,630392,"Gonzales, CA",CA,36.505979,-121.442918,8581,-0.0775036659116853,0.264420037264589,-0.290032565527344,1.54495719489125,0.321856381171846,1.7636973818886557
2022,630703,"Granite Hills, CA",CA,32.803279,-116.905608,4525,-0.0917015756243399,-1.58527678295767,0.709727184501521,-0.40690931809549,0.124510808640995,-1.249649683534984
2022,630812,"Graton, CA",CA,38.437517,-122.865988,1671,-0.74887412068476,-0.800319004909504,1.24937996913194,-0.00111810625225484,0.084791035173619,-0.21614022754095993
2022,630994,"Greenfield, CA",CA,36.32339,-121.24475,18998,-0.0978316658953906,0.226407382420913,0.241641021968498,2.22792000714629,0.317352654189237,2.9154893998295472
2022,631092,"Green Valley (Los Angeles County), CA",CA,34.617415,-118.405023,832,0.362043557966796,0.0637775675811401,0.0697946354666727,-0.970648100381547,0.268870817356128,-0.20616152201081023
2022,631099,"Green Valley (Solano County), CA",CA,38.263842,-122.162496,1586,0.377799632158057,NA,-0.585614798345398,-0.211733607890923,-1.11788545943694,-1.537434233515204
2022,631393,"Grover Beach, CA",CA,35.120888,-120.619664,12757,-0.294253787372193,0.0877271628478092,-0.0530266995748943,0.255540803954993,0.00707940094311521,0.0030668807988301064
2022,631414,"Guadalupe, CA",CA,34.964929,-120.573127,8272,-0.37844501550772,0.365387931766641,1.52402813304559,2.05199550931577,1.61720566325028,5.180172221870561
2022,631470,"Guerneville, CA",CA,38.517165,-122.989897,4764,0.0721116845124826,0.204093721390132,-0.520042701235263,-0.634848976658261,0.107411714012412,-0.7712745579784974
2022,631596,"Hacienda Heights, CA",CA,33.995853,-117.973023,55461,0.0940437934237587,-0.645246346840778,0.075117013101726,1.44637343542058,0.0458446689712202,1.0161325640765069
2022,631708,"Half Moon Bay, CA",CA,37.467319,-122.440485,11633,-0.337405992060477,-1.09762633717448,-0.392861892768617,0.492240511998781,-0.573332874837388,-1.9089865848421812
2022,632044,"Harbison Canyon, CA",CA,32.827274,-116.83807,4137,0.110104348106196,-0.779854272268516,-0.581335338132361,-0.644958346379547,-0.2601507584866,-2.156194367160828
2022,632212,"Harmony Grove, CA",CA,33.100717,-117.137992,2039,-1.92594061226398,-2.12702008373514,-0.44950137305834,0.429592112166207,-1.15646174864565,-5.229331705536904
2022,632340,"Hartley, CA",CA,38.420393,-121.950842,2807,0.00137356875043484,-0.0474628460761486,-0.755795263278911,-0.582895997804981,-0.370460820907625,-1.755241359317231
2022,632385,"Hasley Canyon, CA",CA,34.481599,-118.666689,1236,-0.0324406030823527,NA,-0.172609347243718,-0.688607416169122,0.390970890284846,-0.5026864762103467
2022,632506,"Hawaiian Gardens, CA",CA,33.830482,-118.073451,14011,-0.376561072002961,0.427737916797158,0.680288940507474,1.33588399088853,1.17625540650647,3.243605182696671
2022,632548,"Hawthorne, CA",CA,33.914775,-118.348083,86978,-0.857615904740384,0.125387570037996,0.56378892431703,1.63293823023202,0.827954955026518,2.29245377487318
2022,633000,"Hayward, CA",CA,37.628659,-122.102405,160602,-0.608056253379868,-0.396325196473108,0.0313261243361799,1.36771541694097,0.133506206636055,0.5281662980602289
2022,633056,"Healdsburg, CA",CA,38.6228,-122.865084,11481,0.0896556200853128,-0.711505562644918,-0.0322768778433561,0.0177567077795553,-0.0573111681062243,-0.6936812807296303
2022,633308,"Hercules, CA",CA,38.021427,-122.288929,26041,-0.522921230380794,-1.27740507501309,-0.64351687479547,0.357832240413682,-0.590905404080631,-2.6769163438563033
2022,633364,"Hermosa Beach, CA",CA,33.865275,-118.396297,19551,-0.996094999290285,-1.18421569250174,-0.591580421953346,-0.305129505585179,-0.64407945020943,-3.72110006953998
2022,633518,"Hidden Hills, CA",CA,34.163744,-118.661204,2107,0.176643912552414,-3.09621051185626,-0.284653807007446,-0.696160335431074,-0.391489312377781,-4.291870054120148
2022,633532,"Hidden Meadows, CA",CA,33.223634,-117.119826,3698,0.660223218574411,NA,-0.411406061989121,-0.278706821031832,-0.00898151424508928,-0.03887117869163123
2022,633632,"Highlands, CA",CA,37.520055,-122.345924,2730,-0.0872299976674567,-2.28005015133321,-0.648698874875235,-0.343281433525804,-0.752675923538894,-4.1119363809406
2022,633798,"Hillsborough, CA",CA,37.557241,-122.358695,11258,-0.054811973757539,-3.09621051185626,-0.726717196682534,-0.377310929425626,-0.828067331935541,-5.0831179436575
2022,633935,"Hiouchi, CA",CA,41.793664,-124.066113,141,2.22400026198986,NA,-0.388285608557614,-0.739693822330862,-0.393508473184509,0.7025123579168747
2022,634540,"Hoopa, CA",CA,41.079639,-123.69766,2489,0.981260762852245,2.40719033170461,1.35272542297829,-0.0605847426576706,1.34529760934037,6.025889384217844
2022,634652,"Hopland, CA",CA,38.96883,-123.116899,1025,0.645811822507778,0.356127488090449,1.05841080273614,0.499347647265664,1.58107253924204,4.140770299842071
2022,634928,"Humboldt Hill, CA",CA,40.722316,-124.197381,3273,0.417986909963038,0.625279559057892,0.0313703733777994,0.169570211441188,-0.0646163080438763,1.1795907457960415
2022,636000,"Huntington Beach, CA",CA,33.698007,-118.003834,197481,-0.488862690688687,-0.805438412325962,-0.360731671103862,0.0104228502471785,-0.368439286842181,-2.0130492107135134
2022,636056,"Huntington Park, CA",CA,33.979248,-118.217438,54547,-0.396482295584342,0.557112405476001,0.966257197236,3.0179501980098,1.60728154268893,5.752119047826389
2022,636126,"Hydesville, CA",CA,40.557875,-124.08225,1060,1.09453017925285,0.639458668301455,0.0892230003858943,-0.777996213283739,-0.0921647545417644,0.9530508801146959
2022,636294,"Imperial Beach, CA",CA,32.56914,-117.114921,26157,-0.635878784240067,0.0480332848146254,0.358575839789695,0.483565919924513,0.563185173287966,0.8174814335767324
2022,636420,"Indianola, CA",CA,40.809964,-124.078447,717,0.0333810568575872,NA,0.945320231545007,-0.856044348979237,1.61087307075813,1.7335300101814872
2022,636490,"Industry, CA",CA,34.026232,-117.940327,234,-0.414030631851041,NA,-0.739294705142907,1.40234525630319,0.175234009603434,0.42425392891267594
2022,636546,"Inglewood, CA",CA,33.956068,-118.344274,106806,-0.658422398126693,0.0892279265966547,0.545281837113837,1.5441829512019,0.766794312134574,2.2870646289202727
2022,636613,"Interlaken, CA",CA,36.950603,-121.737519,8039,-0.257158837442331,-0.480231535698331,-0.300229698843988,1.36708354672192,-0.208987243917096,0.12047623082017422
2022,636616,"Inverness, CA",CA,38.082796,-122.854943,1469,0.970113936102935,-0.132943849366446,-0.0745249106726491,-0.627542704436742,0.174796548768996,0.30989902039609385
2022,636770,"Irvine, CA",CA,33.678399,-117.771254,304527,-0.695255945605398,-1.13412339000438,-0.0827859922247,0.528564108102886,-0.29059538816096,-1.674196607892552
2022,636826,"Irwindale, CA",CA,34.111855,-117.963614,1343,-0.176772819735062,0.150654215677091,-0.310817369961495,1.32770004818494,0.0292622380260235,1.0200263121914974
2022,636868,"Isla Vista, CA",CA,34.414116,-119.857874,14722,-0.493718552908866,0.116873027463263,0.410392656586591,-0.130346879605661,3.24362055567093,3.1468208072062573
2022,637022,"Jacumba, CA",CA,32.636478,-116.190706,857,0.278539513155564,NA,2.9530066523823,-0.506503722525596,3.48356560538828,6.2086080484005475
2022,637120,"Jamul, CA",CA,32.71841,-116.870862,6018,0.227423160667626,-1.39959303995655,-0.421114305998126,0.124139053570224,-0.462505553609343,-1.9316506853261688
2022,637274,"Jenner, CA",CA,38.459034,-123.127467,16,-3.30243571776179,NA,NA,-1.25962787563715,-1.33648443161962,-5.89854802501856
2022,637582,"Julian, CA",CA,33.073501,-116.588883,1377,1.26501164858205,0.386996625513007,-0.947575093314249,-0.413500495074821,-1.07407524317867,-0.783142557472683
2022,638086,"Kensington, CA",CA,37.910303,-122.282746,5309,-0.304734567239591,-2.20353511753417,-0.873271924684979,-0.388975744216845,-0.700810335512883,-4.471327689188469
2022,638114,"Kentfield, CA",CA,37.935426,-122.558794,7410,0.012166852452589,-1.87754948930786,-0.771166206602315,-0.0522887744464302,-0.78082440076388,-3.469662018667896
2022,638156,"Kenwood, CA",CA,38.415407,-122.538753,609,-0.229687624513771,NA,-0.269518415738261,-0.450082010391466,-0.886427724184682,-1.8357157748281798
2022,638177,"Kep'el, CA",CA,41.284142,-123.819006,19,2.35251729975829,NA,NA,-0.938492136830323,1.14525684080734,2.559282003735307
2022,638520,"King City, CA",CA,36.216283,-121.131962,13471,0.128546112290217,0.464251102883714,0.285326738135358,2.21115378078232,0.767009706642192,3.856287440733801
2022,638702,"Klamath, CA",CA,41.532204,-124.006413,924,1.51012764633004,1.93812212627328,1.20930482109139,-0.582453710075344,1.43128763839532,5.506388522014685
2022,638772,"Knightsen, CA",CA,37.962426,-121.64858,1646,0.129364501382787,-0.680647720495578,-0.722129207899825,0.354380871211368,-0.244968951234949,-1.1640005070361967
2022,639003,"La Ca√±ada Flintridge, CA",CA,34.20969,-118.200139,20378,0.0228983053419771,-2.45858523019763,-0.785302662437453,-0.0420714507104868,-0.837205700373509,-4.100266738377102
2022,639045,"La Crescenta-Montrose, CA",CA,34.233016,-118.235774,20092,-0.487223986231354,-0.82631999242335,-0.468232891872016,0.45506380168456,-0.336520493610984,-1.663233562453144
2022,639094,"Ladera, CA",CA,37.3996,-122.199097,1427,1.08240347320132,NA,-1.06722408756567,-0.946968253193279,-0.709145805650264,-1.640934673207893
2022,639108,"Ladera Heights, CA",CA,33.996776,-118.370028,6710,-0.374537509168314,-1.81490383220345,-0.441657666546584,-0.334415029107386,-0.34467721556353,-3.3101912525892643
2022,639114,"Ladera Ranch, CA",CA,33.549083,-117.641611,24323,-1.2126427976508,-1.81876337016639,-0.701757159066928,-0.168556072023837,-0.866631298181393,-4.768350697089348
2022,639122,"Lafayette, CA",CA,37.891004,-122.119529,25310,-0.272856289679875,-1.85475834718593,-0.771508557786367,-0.351889519747605,-0.680811448884526,-3.931824163284303
2022,639178,"Laguna Beach, CA",CA,33.543372,-117.761815,22943,0.180137719606023,-1.43137350867075,-0.703240820874045,-0.60604282628679,-0.552983999036212,-3.113503435261774
2022,639220,"Laguna Hills, CA",CA,33.59151,-117.699416,31170,-0.424553092224266,-1.03030936751527,-0.261256136444979,0.284630567106479,-0.410526079404977,-1.8420141084830128
2022,639248,"Laguna Niguel, CA",CA,33.528654,-117.701253,64259,-0.460904919389077,-1.37543103409104,-0.397949001189764,-0.0335353017523288,-0.524732162094536,-2.7925524185167463
2022,639259,"Laguna Woods, CA",CA,33.612058,-117.730319,17452,3.10578826275981,0.0554945042997434,-0.384381561581753,0.294633548832615,-0.464818698070371,2.606716056240044
2022,639283,"Lagunitas-Forest Knolls, CA",CA,38.018026,-122.691303,1747,-0.0845616646824814,-1.14909626838754,0.355481123317173,0.00339386338501135,-0.368466920415732,-1.243249866783569
2022,639290,"La Habra, CA",CA,33.927927,-117.951554,62904,-0.616638577340275,-0.179600191319001,0.0604951846608319,0.766779265243183,0.0472692885806126,0.07830496982535148
2022,639304,"La Habra Heights, CA",CA,33.958959,-117.948973,5599,-0.0564018691261986,-0.668533621166982,-0.785871903966385,0.0850492252766596,-0.755896849273692,-2.181655018256598
2022,639318,"La Honda, CA",CA,37.317705,-122.25843,1422,-1.99301295480091,-1.01208276720441,-0.750015126061905,-0.331747407346512,-1.14727995321746,-5.2341382086311965
2022,639496,"Lake Forest, CA",CA,33.654946,-117.675848,85583,-0.706702414788729,-0.877743102543796,-0.359685683074937,0.376386246402505,-0.413292907647935,-1.9810378616528919
2022,639556,"Lake Hughes, CA",CA,34.682415,-118.451938,867,-0.0335833954702725,NA,-1.06722408756567,1.37346783981001,0.301027660779108,0.5736880175531756
2022,639612,"Lake Los Angeles, CA",CA,34.609839,-117.830337,13097,0.800782825107786,0.378128268056744,0.674827837788407,1.11746869461903,0.447003669091915,3.418211294663882
2022,639670,"Lake Nacimiento, CA",CA,35.730962,-120.869516,3205,0.0249498378970023,0.524434386604865,-0.23318093188733,-0.362418787457612,-0.304800345427708,-0.35101584027078275
2022,639724,"Lake San Marcos, CA",CA,33.122362,-117.208576,4080,1.16723566671071,-0.55618031385646,-0.419324467982383,-0.400431156626797,-0.388125109455203,-0.5968253812101331
2022,639735,"Lake Sherwood, CA",CA,34.131803,-118.884714,1617,1.2839918069581,-2.59146094883368,-0.820137919423906,-0.98339656638994,-0.340076820458408,-3.451080448147834
2022,639766,"Lakeside, CA",CA,32.856617,-116.904237,21759,0.080887435271965,0.136616901008066,-0.292141597169253,-0.125887528007442,-0.0832853713360988,-0.28381016023276273
2022,639892,"Lakewood, CA",CA,33.847135,-118.121894,81499,-0.640216337164984,-0.647828711594825,-0.356586042426737,0.41445925922506,-0.294983242015726,-1.5251550739772122
2022,640004,"La Mesa, CA",CA,32.769495,-117.021923,60888,-0.739432461563332,-0.129561106689177,-0.102128523428797,0.233656470149798,-0.0733134533454089,-0.8107790748769168
2022,640032,"La Mirada, CA",CA,33.902045,-118.008961,47644,-0.12654721088225,-0.483223098338504,-0.335108472740133,0.804734888194428,-0.433951787251118,-0.574095681017577
2022,640130,"Lancaster, CA",CA,34.693558,-118.175305,171465,0.140509057640562,0.153017856941618,0.730667419875082,0.783510800399638,0.7361476060238,2.5438527408807
2022,640256,"La Palma, CA",CA,33.850616,-118.039565,15522,-0.0932479573589258,-0.876934861248253,-0.417070332441767,0.485448978193362,-0.577548331643927,-1.479352504499511
2022,640326,"La Presa, CA",CA,32.712315,-117.00371,38618,-0.122270847476672,-0.00719581308385122,-0.174542433814972,0.35766220276341,0.321024794637357,0.37467790302527176
2022,640340,"La Puente, CA",CA,34.032333,-117.95352,37835,-0.22701612627653,0.101908446813016,0.272379924438665,1.85400918059427,0.636694994818349,2.63797642038777
2022,640426,"Larkfield-Wikiup, CA",CA,38.512972,-122.753601,7688,-0.088396656155973,-0.107824708289613,-0.385214977007746,0.144574828258061,-0.628558406977665,-1.065419920172936
2022,640438,"Larkspur, CA",CA,37.940544,-122.530229,12969,-0.403187026578679,-1.1890472941421,-0.518653625695329,0.0234395721120801,-0.659257326783702,-2.74670570108773
2022,640508,"La Selva Beach, CA",CA,36.927375,-121.844404,2320,-0.196270966759656,-1.42009531362358,-0.767855971316825,-0.755418953866482,-0.602944240555215,-3.7425854461217583
2022,640526,"Las Flores, CA",CA,33.583857,-117.623571,5757,-1.55266927988902,-1.72108938096753,-0.369695015235017,0.0313841035760334,-0.375288982779455,-3.987358555294988
2022,640592,"Las Lomas, CA",CA,36.868813,-121.731611,3059,-0.265155791250284,0.0775560534974468,1.10562545958519,1.48044193907272,1.30733626890822,3.705803929813293
2022,640830,"La Verne, CA",CA,34.120521,-117.769928,31239,0.0980959174735657,-0.397129204932218,-0.178017379090141,0.0266006974360076,-0.321041015751096,-0.7714909848638816
2022,640886,"Lawndale, CA",CA,33.888422,-118.353138,31553,-0.98082848662975,-0.029849370819789,0.0505353856387875,2.29631246021249,0.659118928606024,1.9952889170077621
2022,640928,"Laytonville, CA",CA,39.662256,-123.495015,552,0.943174147337677,0.552378055446298,-0.110641679409101,-0.866248922079351,-0.0339810051356738,0.48468059615984915
2022,641026,"Leggett, CA",CA,39.863539,-123.725176,46,1.05533325848118,NA,NA,1.01405061600064,4.50219344066957,6.571577315151391
2022,641124,"Lemon Grove, CA",CA,32.733071,-117.034414,27482,-0.345500106648335,0.0121907060736919,-0.0420916000264498,0.142011285505558,0.192692530806602,-0.04069718428893293
2022,641180,"Lennox, CA",CA,33.938065,-118.358542,20687,-0.844535844427571,0.486315006623655,0.618477390916947,3.07961247532925,1.38950847637582,4.7293775048181015
2022,641208,"Leona Valley, CA",CA,34.608144,-118.301322,1569,0.951731987476685,NA,-0.737916965217704,0.209634380197929,-0.547823378357421,-0.12437397590051102
2022,641282,"Lexington Hills, CA",CA,37.159016,-121.988793,2587,-1.47925923029568,-1.5089874185788,-1.06722408756567,-0.824891475645572,-1.1965257983171,-6.076888010402821
2022,641866,"Little River, CA",CA,39.270285,-123.781749,223,0.79153172637649,NA,3.11179049272471,0.055616789564629,0.373731056633152,4.332670065298981
2022,641880,"Littlerock, CA",CA,34.525126,-117.981631,1509,-0.16842273490138,0.508295246050519,-0.774168855592415,0.794415349965463,0.746391282864305,1.1065102883864921
2022,641922,"Live Oak, CA",CA,36.986024,-121.980413,17707,-0.351830249527846,-0.305714138805176,-0.00513898077530257,0.229760254380364,-0.201769007256113,-0.6346921219840737
2022,641992,"Livermore, CA",CA,37.685467,-121.762518,87154,-0.813389663129652,-1.26334555075997,-0.611428518498926,0.0863428098902749,-0.645000004438713,-3.246820926936986
2022,642146,"Lockwood, CA",CA,35.940455,-121.079072,235,-0.881566716625759,NA,-1.06722408756567,-0.575008828070953,0.440052829239056,-2.0837468030233257
2022,642328,"Loleta, CA",CA,40.640885,-124.222556,532,0.230275085783242,0.869494833370943,-0.540040575952879,-0.610698486922221,-0.417158263650848,-0.468127407371763
2022,642384,"Loma Mar, CA",CA,37.265784,-122.300692,112,-2.17316990796958,NA,-1.06722408756567,-0.671467181851757,-1.33648443161962,-5.248345609006627
2022,642468,"Lomita, CA",CA,33.793306,-118.317451,20662,-0.671778969210304,-0.0597757506621857,0.115289018123874,0.570477668702675,-0.146034740686929,-0.1918227737328696
2022,642510,"Lompico, CA",CA,37.114619,-122.052768,911,-0.483384776190742,NA,-0.140412977827018,-0.831436214590053,-0.371591726637991,-1.826825695245804
2022,642524,"Lompoc, CA",CA,34.662689,-120.470837,44086,-0.286422908363738,0.468763738036674,0.770274209576937,0.945867152120142,0.983896494597516,2.882378685967531
2022,643000,"Long Beach, CA",CA,33.77808,-118.167103,462293,-0.665667471388641,0.020558047839255002,0.456948806145544,0.801969548776648,0.430566655100687,1.044375586473493
2022,643224,"Los Alamitos, CA",CA,33.796911,-118.061244,11728,-0.806679797004072,-0.694155452832983,-0.138945335227815,0.195527817150016,-0.196763799062236,-1.64101656697709
2022,643252,"Los Alamos, CA",CA,34.729925,-120.269909,834,1.04198684271272,0.460359291524232,-0.913878274803422,-0.182716948308514,0.0517353910996374,0.45748630222465336
2022,643280,"Los Altos, CA",CA,37.368549,-122.096644,31133,-0.0307587056376595,-2.30555516259955,-0.790709317968684,-0.315658389311556,-0.962163710864507,-4.404845286381956
2022,643294,"Los Altos Hills, CA",CA,37.367143,-122.139,8441,0.43759216738331,-3.09621051185626,-0.921064869882187,-0.0093105623850018,-0.77674882535252,-4.365742602092659
2022,644000,"Los Angeles, CA",CA,34.019394,-118.410825,3881041,-0.599456849451607,-0.214668751813406,0.669543200828595,1.91753452636509,0.62733537377304,2.400287499701712
2022,644042,"Los Berros, CA",CA,35.080907,-120.545036,182,3.82797849792589,NA,-1.06722408756567,-1.25962787563715,0.0387981114488753,1.5399246461719454
2022,644112,"Los Gatos, CA",CA,37.232976,-121.951066,33093,-0.134921320370652,-1.61302885724222,-0.680729238761481,-0.104437484660513,-0.76246786591536,-3.295584766950226
2022,644168,"Los Olivos, CA",CA,34.661506,-120.117436,1020,0.451502217405964,-1.17241489370976,-0.872924384224838,-0.655432527297682,-0.343132953762808,-2.592402541589124
2022,644182,"Los Osos, CA",CA,35.307092,-120.823162,15523,0.142212756393694,0.0131697206767026,-0.328632793188571,-0.333761454824851,-0.284015368314121,-0.7910271392571464
2022,644242,"Los Ranchos, CA",CA,35.212699,-120.62803,1571,0.519515785471585,NA,-0.873818323584737,-0.793370487145443,-1.20676526845295,-2.354438293711545
2022,644378,"Loyola, CA",CA,37.350192,-122.098118,3818,0.150761379585069,-2.43308021893128,-0.898424394609061,-0.619048617492868,-1.0865644148431,-4.886356266291241
2022,644399,"Lucas Valley-Marinwood, CA",CA,38.040508,-122.576482,6334,-0.0712727939802548,-2.20353511753417,-0.789694761951493,-0.449206164462205,-0.826896781978785,-4.340605619906908
2022,644574,"Lynwood, CA",CA,33.923962,-118.201647,66346,-0.15465049288376,0.312801818127124,0.714040496220698,2.16401289286093,1.3931483244325,4.429353038757492
2022,644910,"McKinleyville, CA",CA,40.951571,-124.077357,16913,-0.11518339007659,0.499041643828875,0.0538981460979888,-0.386328205072018,0.251113190674636,0.30254138545289183
2022,645246,"Malibu, CA",CA,34.034256,-118.779529,10698,0.429243000882986,-1.47571261468356,-0.234013150474299,-0.397374050105483,-0.467293936379574,-2.14515075075993
2022,645386,"Manchester, CA",CA,38.974384,-123.690961,298,-2.38420038004863,NA,-1.06722408756567,1.04900181590115,-0.417085659368757,-2.8195083110819077
2022,645400,"Manhattan Beach, CA",CA,33.889632,-118.39737,35123,-0.166145931479121,-2.02095725350124,-0.805561893395387,-0.468437393637434,-0.87470941797377,-4.335811889986952
2022,645414,"Manila, CA",CA,40.850897,-124.163193,663,-1.07464377418253,0.298352407680598,-0.971078675536567,-0.896140561237354,-0.341528985279801,-2.985039588555654
2022,645778,"Marina, CA",CA,36.680256,-121.789368,22253,-0.491391542863738,-0.222388579924007,0.00987363126995676,0.457317897089762,0.0780533021486383,-0.16853529227938785
2022,645806,"Marina del Rey, CA",CA,33.978841,-118.45251,10274,-2.08703507932565,-1.22931550079033,-0.580473520696913,0.330619625881755,-0.603825971725928,-4.170030446657067
2022,645820,"Marin City, CA",CA,37.871156,-122.513736,3419,-0.7088814850863,-0.721524689218493,-0.174365327508868,1.20749048835863,-0.309477639219125,-0.7067586526741558
2022,646114,"Martinez, CA",CA,37.998116,-122.114419,37093,-0.681952105103494,-0.751745034472267,-0.528090053047781,-0.0156387186343152,-0.560300066131951,-2.537725977389808
2022,646436,"Mayflower Village, CA",CA,34.115913,-118.009596,5209,0.116455651000718,-0.276265119900455,-0.17473180847281,0.935441880842568,-0.22558787848242,0.37531272498760093
2022,646492,"Maywood, CA",CA,33.988505,-118.187666,25009,-0.309853322589066,0.476271914479548,1.22613471492209,3.40592765329799,1.28211264541435,6.080593605524912
2022,646702,"Meiners Oaks, CA",CA,34.450485,-119.273133,3914,0.23251986124136,NA,-0.593792347620496,-0.11179538046622,-0.550747884182629,-1.023815751027985
2022,646814,"Mendocino, CA",CA,39.311404,-123.812552,731,0.130193297488575,-0.0367012934284621,-1.06722408756567,-1.03421668044485,-0.962027375271201,-2.9699761392216084
2022,646870,"Menlo Park, CA",CA,37.479731,-122.148055,33324,-0.555621816756878,-1.47988338279828,-0.622663083548725,0.311737985720797,-0.623450476038622,-2.969880773421708
2022,647430,"Midway City, CA",CA,33.745129,-117.984828,8032,0.322570860861705,0.291135865065153,0.603615798464986,1.733082537666,1.0950890470225,4.0454941090803445
2022,647486,"Millbrae, CA",CA,37.59897,-122.401991,22825,-0.214313221644166,-1.83918806490034,-0.338754827901589,0.817780930061424,-0.459468573231467,-2.033943757616138
2022,647710,"Mill Valley, CA",CA,37.908122,-122.542325,14199,-0.011557473158107,-1.69337531532674,-0.600140039003956,-0.475872282959989,-0.661180965297243,-3.442126075746035
2022,647766,"Milpitas, CA",CA,37.433921,-121.891983,79092,-0.766999940511064,-1.41543720764319,-0.269418157965413,0.782767620614198,-0.318139237488687,-1.987226922994156
2022,648046,"Mira Monte, CA",CA,34.4289,-119.2834,6837,0.904404064292471,0.292830805471504,0.339695684684948,-0.149838421599013,-0.0655644930641367,1.3215276397857734
2022,648060,"Miranda, CA",CA,40.228687,-123.817584,656,-0.0254545704053134,NA,4.07434885793423,-0.875641699894368,1.00809670139859,4.181349289033139
2022,648147,"Mission Canyon, CA",CA,34.456252,-119.716989,2500,-0.318159594945353,-2.22971274741428,-0.485981209011208,-0.530504135418934,-0.743099693570066,-4.307457380359841
2022,648186,"Mission Hills, CA",CA,34.688779,-120.43975,3458,-0.321084929687615,-0.296135953198947,-0.787146713674169,-0.371323114581915,-0.510063121349063,-2.285753832491709
2022,648256,"Mission Viejo, CA",CA,33.609335,-117.656471,93233,-0.206383509050917,-1.21513888462704,-0.501391850256375,0.198651656396317,-0.560711971511304,-2.284974559049319
2022,648410,"Modjeska, CA",CA,33.709133,-117.629704,756,-0.710405812045144,-0.793182581273158,-0.746716417921376,-0.497452612448641,-1.02162486644968,-3.769382290137999
2022,648648,"Monrovia, CA",CA,34.163984,-117.984646,37656,-0.783841240220616,-0.39057597585791,-0.0435572829585282,0.699660108355281,-0.0608062129360654,-0.5791206036178386
2022,648718,"Montalvin Manor, CA",CA,37.997583,-122.330093,2195,0.247074544663611,0.476575021824769,-0.0978168102788039,3.40271831807936,-0.0334166816807317,3.9951343926082044
2022,648760,"Montara, CA",CA,37.548258,-122.492369,2649,-0.71262323727292,NA,-0.49514322461796,-0.296966104687466,-0.292533033820889,-1.797265600399235
2022,648788,"Montclair, CA",CA,34.071459,-117.698049,37842,-0.313854986548701,0.164474693268319,0.457581094466933,1.61747022137565,0.742227369306188,2.667898391868389
2022,648816,"Montebello, CA",CA,34.015444,-118.111012,62056,-0.231024576368907,7.70218134928877e-4,0.421581749843205,1.61617206008494,0.811777849497305,2.619277301191472
2022,648844,"Montecito, CA",CA,34.438229,-119.628421,8529,1.48600970456108,-2.17803010626783,-0.439093476438902,-0.32121802918663,-0.486512589935567,-1.9388444972678487
2022,648872,"Monterey, CA",CA,36.601193,-121.88311,30007,-0.557408738001697,-0.451225798811408,-0.118112454374056,0.160463853350391,-0.29092286280168,-1.2572060006384498
2022,648914,"Monterey Park, CA",CA,34.04838,-118.133165,60386,0.0220303727233585,-0.180511447320635,0.28598313300073003,1.71427428835441,0.0323299087213509,1.8741062554792145
2022,648928,"Monte Rio, CA",CA,38.473611,-123.026178,771,0.564760033189294,0.286026554261745,0.0202849901918344,-0.743322790830109,-0.463284299707958,-0.3355355128951936
2022,648956,"Monte Sereno, CA",CA,37.240345,-121.988318,3444,0.631658917107338,-2.48869003329707,-0.859465168621697,-0.692619594642149,-1.14096375204819,-4.5500796315017675
2022,649138,"Moorpark, CA",CA,34.285942,-118.87704,36073,-0.545494005822617,-1.11108655845547,-0.540337410544087,0.166642820691892,-0.528264953249682,-2.558540107379964
2022,649187,"Moraga, CA",CA,37.845693,-122.123217,16859,0.0520981382083535,-1.89560478277843,-0.653442420267612,-0.1388791461878,-0.661948015173611,-3.2977762261990993
2022,649278,"Morgan Hill, CA",CA,37.132545,-121.641758,45291,-0.484998238816677,-1.13059699662957,-0.65611576040535,0.226702169071606,-0.506445899455283,-2.551454726235274
2022,649362,"Morro Bay, CA",CA,35.367289,-120.869205,10766,0.332085195172404,-0.0018670747560855,-0.131975407650984,-0.467474915837298,0.136194274574377,-0.1330379284975865
2022,649432,"Moskowite Corner, CA",CA,38.443874,-122.19199,146,0.599202377943859,NA,0.430125385526334,2.37297985723398,0.428654246995823,3.8309618676999957
2022,649446,"Moss Beach, CA",CA,37.518374,-122.503482,3165,0.106918941267563,NA,-0.541794352950583,0.321136096703639,-0.341455681691611,-0.45519499667099195
2022,649488,"Moss Landing, CA",CA,36.805389,-121.786577,9,2.92887994654596,NA,NA,-0.0833064880663675,5.07145370064154,7.917027159121133
2022,649582,"Mountain House, CA",CA,37.774017,-121.545263,23590,-0.612096592916421,-1.65615459779581,-0.622885571553742,0.0592131059531816,-0.592689311895118,-3.42461296820791
2022,649651,"Mountain View CDP, CA",CA,38.009205,-122.116849,2166,-1.12739323682988,-0.184980364232539,-0.27093091986734,-0.507285539540154,-0.24430350432625,-2.334893564796163
2022,649670,"Mountain View city, CA",CA,37.399686,-122.079269,82132,-1.05465936586097,-1.09599561898242,-0.519034527669181,0.613876968825401,-0.683200722967688,-2.739013266654858
2022,649796,"Mount Hermon, CA",CA,37.051034,-122.053347,1174,-0.789962115313267,NA,-0.761740243330101,-0.629599658499792,-1.33648443161962,-3.5177864487627803
2022,649810,"Mount Laguna, CA",CA,32.871105,-116.424687,104,1.24860897111221,NA,NA,-0.85850228247551,0.489135059329746,0.8792417479664459
2022,649950,"Muir Beach, CA",CA,37.861565,-122.580322,407,0.155818349497797,-1.17647753783845,-0.972617906064546,-0.241139263832002,-0.453798404404291,-2.688214762641492
2022,650146,"Myers Flat, CA",CA,40.265478,-123.875548,208,2.21847399403145,NA,NA,-0.64676443271277,1.80548956813282,3.3771991294515002
2022,650188,"Myrtletown, CA",CA,40.788731,-124.130658,4946,0.822780363908913,0.407941272866523,0.44245770586047,0.0574955926893747,0.740322134429986,2.4709970697552666
2022,650258,"Napa, CA",CA,38.29722,-122.30117,79233,-0.451347071444303,-0.433428539798745,-0.239480561268272,0.569048944942566,-0.126405117332784,-0.6816123449015381
2022,650398,"National City, CA",CA,32.665217,-117.098784,56345,-0.0932068509671169,0.455481838348829,0.607995332997096,1.22973919639796,0.804878159619931,3.004887676396699
2022,650916,"Newark, CA",CA,37.504076,-122.031898,47470,-0.934337523184102,-1.10423629869069,-0.414818723641126,0.787840741622401,-0.341837080949809,-2.007388884843326
2022,651028,"New Cuyama, CA",CA,34.942148,-119.680762,669,0.568338278142036,0.839952958766197,0.89945396779065,0.717578938758476,0.499445994704704,3.524770138162063
2022,651182,"Newport Beach, CA",CA,33.597133,-117.890263,85159,-0.22649059348524,-1.52594560583252,-0.457008642122462,-0.290803531278771,-0.589366300386678,-3.089614673105671
2022,651280,"Nicasio, CA",CA,38.060622,-122.700822,83,-0.482887763661221,NA,-0.611422796166569,-1.1297449128952,-0.868868749312599,-3.092924222035589
2022,651476,"Nipomo, CA",CA,35.03066,-120.49775700000001,18009,0.218722836559019,-0.093755448589486,-0.274418745737935,0.0159881160151665,-0.0630417196525272,-0.1965049614057627
2022,651622,"Norris Canyon, CA",CA,37.745396,-121.987812,954,0.0189660145686174,NA,-1.06722408756567,1.20286716301765,-0.741779743903156,-0.5871706538825586
2022,651820,"North El Monte, CA",CA,34.102947,-118.023838,3983,-0.442064083268831,-1.00658560748623,-0.243828064187623,1.19393907070988,-0.317397286313262,-0.8159359705460658
2022,651840,"North Fair Oaks, CA",CA,37.475372,-122.203469,13718,-0.549385647601613,-0.658305106405961,0.513000695242321,2.20489884818764,0.634729902563738,2.144938691986125
2022,651890,"North Gate, CA",CA,37.906153,-121.998184,900,0.80410090482021,NA,-0.900272002563687,0.275610032754745,-1.26361810755873,-1.084179172547462
2022,652162,"North Richmond, CA",CA,37.965269,-122.370649,3734,-0.871971865908958,-0.216850150105393,-0.0165769334220545,3.32486610743745,0.954026288778363,3.173493446779408
2022,652379,"North Tustin, CA",CA,33.764421,-117.794483,25131,-0.0353229051606123,-1.62319067023511,-0.59867503790814,-0.0693483467479663,-0.706957638922144,-3.0334945989739723
2022,652526,"Norwalk, CA",CA,33.9076,-118.083453,101893,-0.25311911562658,-0.110956162698501,-0.0583606260724198,1.27471497260829,0.197896102431126,1.0501751706419151
2022,652582,"Novato, CA",CA,38.085087,-122.548215,53055,0.0115042678970316,-1.04977459292368,-0.254138970609781,0.725064935063553,-0.31347024481377,-0.8808146053866464
2022,653000,"Oakland, CA",CA,37.769846,-122.22569,437825,-0.778702538494341,-0.367660848943606,0.475772409867941,0.790705499541615,0.175096850059734,0.29521137203134284
2022,653070,"Oakley, CA",CA,37.996149,-121.693624,43525,-0.678137517404246,-0.750340476467661,-0.215006358819913,0.302072055034134,-0.0852674090887039,-1.4266797067463899
2022,653116,"Oak Park, CA",CA,34.184964,-118.76692,13627,-0.275995156152134,-1.58737043723645,-0.354440756090952,-0.0795162840611604,-0.694168409690424,-2.9914910432311204
2022,653160,"Oak Shores, CA",CA,35.760759,-120.982825,159,-0.937296443748057,NA,-0.307592100806656,-0.747928072043857,-0.826420163193357,-2.819236779791927
2022,653182,"Oak View, CA",CA,34.398971,-119.29757,6468,0.0449695744164633,-0.714132525129928,-0.236816582661048,-0.022086934831257,-0.0401343631675866,-0.9682008313733562
2022,653196,"Oakville, CA",CA,38.438373,-122.406773,0,NA,NA,NA,NA,NA,0
2022,653266,"Occidental, CA",CA,38.400378,-122.93495,1061,0.182894891184001,-0.19816970986687,-0.477116318912432,-0.400941497847095,-0.36777486109366,-1.2611074965360558
2022,653294,"Oceano, CA",CA,35.101608,-120.608217,7287,0.579345368844883,0.7777799678704,0.337061983098463,0.279884819551182,0.362381656908481,2.336453796273409
2022,653322,"Oceanside, CA",CA,33.224601,-117.306291,173722,-0.447423837295219,-0.38764173729032,-0.16317143008605,0.342283839229422,-0.0868556957858508,-0.7428088612280177
2022,653476,"Ojai, CA",CA,34.448253,-119.246578,7610,0.707696652460524,-0.537596557074799,-0.496895095509439,0.120426919180646,-0.00381121988943112,-0.21017930083249908
2022,653980,"Orange, CA",CA,33.82876,-117.785109,138728,-0.571775749246152,-0.700655370017677,-0.188104535053294,0.467776333576839,-0.141028859238784,-1.1337881799790681
2022,654120,"Orcutt, CA",CA,34.867268,-120.423559,31137,0.0132168629510819,-0.381006216042608,-0.483000341948588,-0.324157708001057,-0.431481217990711,-1.606428621031882
2022,654218,"Orick, CA",CA,41.290216,-124.070302,308,-0.0676594507242866,1.63146935638462,1.14461677121358,-0.290292789736397,0.182201462869294,2.6003353500068105
2022,654232,"Orinda, CA",CA,37.88161,-122.168595,19477,0.136387902854587,-1.79741439007881,-0.914395262189902,-0.342505448303461,-0.916761261410802,-3.834688459128388
2022,654652,"Oxnard, CA",CA,34.199436,-119.207515,202279,-0.47958210975548,-0.132709920389246,0.0674761916094061,1.25423068181918,0.299847589724804,1.0092624330086641
2022,654764,"Pacheco, CA",CA,37.987838000000004,-122.069904,5041,-0.522885419443586,0.667873961043318,-0.0991559557341755,0.316974180715271,0.247756353287356,0.6105631198681835
2022,654806,"Pacifica, CA",CA,37.606598,-122.47723,38048,-0.585013999534849,-1.42202712646279,-0.477030227738509,0.228573911301039,-0.539198216187371,-2.79469565862248
2022,654848,"Pacific Grove, CA",CA,36.622577,-121.92643,15098,0.0785373371703993,-0.750126575123204,-0.598949537916109,-0.335275902096769,-0.366361805613878,-1.9721764835795608
2022,655044,"Pajaro, CA",CA,36.901651,-121.741704,2723,0.193138754190876,0.412988942152326,-0.135432007828349,2.55597472298239,1.81999275712177,4.846663168619013
2022,655048,"Pajaro Dunes, CA",CA,36.868212,-121.805697,93,3.45056978018182,NA,NA,-1.02906888367327,-0.873568961115112,1.547931935393438
2022,655058,"Pala, CA",CA,33.361655,-117.069542,988,0.762433272857137,1.45490519910943,0.0605423127791289,0.571695873818184,0.934429706417982,3.784006364981862
2022,655156,"Palmdale, CA",CA,34.591038,-118.105403,166895,-0.168415192527871,-0.0665562078507463,0.546890688415613,1.68504385781993,0.736322886537398,2.7332860323943238
2022,655282,"Palo Alto, CA",CA,37.399782,-122.142776,67901,-0.350482269400222,-1.63096972274686,-0.577429206630074,0.105642851840821,-0.798779445063905,-3.25201779200024
2022,655380,"Palos Verdes Estates, CA",CA,33.787171,-118.397361,13219,0.667956340885552,-2.14203276736451,-0.724882198292074,-0.205314434781456,-0.93859838395012,-3.342871443502608
2022,655604,"Paradise Park, CA",CA,37.006297000000004,-122.042413,538,1.5117855627268,NA,-0.504745898179545,-0.143217029718952,-0.981442895053179,-0.11762026022487604
2022,655618,"Paramount, CA",CA,33.898883,-118.166629,53255,-0.538614303727862,0.556784124641789,0.355281923761306,1.56246392956738,0.744278192294311,2.680193866536924
2022,656000,"Pasadena, CA",CA,34.160602,-118.137954,137554,-0.67693610306261,-0.567935297416906,0.200747173190426,0.917795735882468,-0.0856218905623646,-0.21195038196898666
2022,656028,"Pasatiempo, CA",CA,37.003421,-122.026505,1264,1.16409393382951,-2.33506324111406,-1.06722408756567,-0.598230953596924,-1.16599062094688,-4.0024149693940245
2022,656476,"Penngrove, CA",CA,38.300598,-122.670566,2184,0.324981849639287,-0.803325954116799,-0.0489130884070415,0.0090390901060256,-0.289132450371886,-0.8073505531504139
2022,656598,"Pepperdine University, CA",CA,34.042278,-118.709182,2741,0.209454293606369,NA,-1.06722408756567,-0.495857052129751,-0.990102444725531,-2.343729290814583
2022,656756,"Pescadero, CA",CA,37.244894,-122.378866,349,-2.00049696194761,NA,-0.296241052114,1.1587649969721,2.05934739077124,0.9213743736817299
2022,656784,"Petaluma, CA",CA,38.242253,-122.628631,59682,-0.430007599788293,-0.740072255777748,-0.537444116070546,0.158092899089053,-0.451448888960899,-2.000879961508433
2022,656786,"Petaluma Center, CA",CA,38.250652,-122.788841,849,-0.541402860207318,NA,NA,-0.260636177030773,-1.18165702902895,-1.983696066267041
2022,656854,"Phillipsville, CA",CA,40.210704,-123.781212,0,NA,NA,NA,NA,NA,0
2022,656868,"Philo, CA",CA,39.06572,-123.445217,53,0.984031413551759,NA,NA,-0.384444763284487,-0.479233560314974,0.12035308995229799
2022,656924,"Pico Rivera, CA",CA,33.989524,-118.089295,61561,-0.123396720220093,0.0353186404958914,0.200986676392296,1.18574365610967,0.272469643060911,1.5711218958386755
2022,656938,"Piedmont, CA",CA,37.822544,-122.230025,11161,-0.347699260073436,-2.52268406767037,-0.792659962701515,-0.490355653333751,-0.887643496945995,-5.041042440725067
2022,657070,"Pine Canyon, CA",CA,36.172072,-121.143013,2092,0.176274758412154,0.653503596284942,-0.0989802964830513,0.343831770043924,-0.388876539880286,0.6857532883776827
2022,657204,"Pine Hills, CA",CA,40.73295,-124.161326,3508,0.508290370357602,0.00394655181230114,0.507728754521952,-0.0156616508079696,0.0717335154253207,1.0760375413092063
2022,657260,"Pine Valley, CA",CA,32.841513,-116.510706,1778,0.378113970890295,NA,-0.93922748906415,-0.388417867746643,0.827457783530882,-0.12207360238961595
2022,657288,"Pinole, CA",CA,38.001702,-122.318488,18946,-0.144123770336631,-0.800168127062825,-0.63182308558626,0.835455402834707,-0.248378866020057,-0.989038446171066
2022,657372,"Piru, CA",CA,34.406921,-118.799572,2182,-0.46205344282565,0.420744482254104,0.493524675546745,1.70761230916207,0.53430911644762,2.694137140584889
2022,657414,"Pismo Beach, CA",CA,35.153173,-120.673874,8050,0.376212007280932,-0.302540902510185,-0.391202748452335,-0.461846477985335,-0.650282578919829,-1.4296607005867519
2022,657456,"Pittsburg, CA",CA,38.016771,-121.896948,76419,-0.421921187897301,-0.459746740593944,0.109794524999336,0.998928894700799,0.399622718143417,0.626678209352307
2022,657526,"Placentia, CA",CA,33.881158,-117.854783,51797,-0.508078871164525,-0.824716710049688,-0.158314715384216,0.385958943310796,-0.172220857739698,-1.2773722110273311
2022,657764,"Pleasant Hill, CA",CA,37.954163,-122.075772,34504,-0.602890957664018,-1.00038434624754,-0.396088132313458,0.10733624160449,-0.581632535615866,-2.473659730236392
2022,657792,"Pleasanton, CA",CA,37.667185,-121.88123,78691,-0.521593493704057,-1.6318916462167,-0.481726201120796,0.10703767612782,-0.645705483231882,-3.1738791481456152
2022,657876,"Point Arena, CA",CA,38.912314,-123.695593,661,-0.95450006608911,0.56258614823623,0.173210060676682,-0.0683045988487127,0.534532781378994,0.24752432535408325
2022,657960,"Point Reyes Station, CA",CA,38.084647,-122.809226,383,-0.0664208968598924,NA,NA,-0.230565132751355,-0.651640098164088,-0.9486261277753354
2022,658072,"Pomona, CA",CA,34.058494,-117.761091,149831,-0.277672995353065,0.176351707863345,0.538677913151186,1.42276636543161,0.753934997672457,2.6140579887655333
2022,658226,"Port Costa, CA",CA,38.044542,-122.184944,251,0.532325547032322,NA,NA,-0.170870811023446,-0.955464246036122,-0.594009510027246
2022,658296,"Port Hueneme, CA",CA,34.162143,-119.204177,21847,-0.407865603600122,-0.0398985991406596,0.211063616128137,0.843625436025734,0.270460450561813,0.8773852999749024
2022,658380,"Portola Valley, CA",CA,37.365222,-122.232745,4397,1.53013394910398,-2.38207019639859,-0.769492869312136,-0.576699901478109,-1.00196249394996,-3.200091512034815
2022,658478,"Potrero, CA",CA,32.613089,-116.606815,509,-0.602794737020864,NA,4.60988391700057,1.06122137789642,1.14098114031316,6.209291698189285
2022,658506,"Potter Valley, CA",CA,39.317141,-123.10986,537,0.311908759355199,0.398549015535804,-0.332976487342055,-0.43917080468516,-0.573721366386185,-0.6354108835223969
2022,658520,"Poway, CA",CA,32.987677,-117.021814,48737,-0.192066682625939,-0.937860510955192,-0.554393861026216,0.00635743536616504,-0.426761069063452,-2.1047246883046338
2022,658870,"Prunedale, CA",CA,36.811747,-121.65496,19372,0.343229315836127,-0.0878069419134448,-0.29617386500669,0.211002228633258,0.0390897925516077,0.20934053010085785
2022,659052,"Quartz Hill, CA",CA,34.651988,-118.215945,10089,0.232687588811591,0.179194074722917,0.279391319534973,0.135700650261945,-0.00223233709387852,0.8247412962375475
2022,659248,"Rainbow, CA",CA,33.409851,-117.139438,1830,0.724906189746213,-0.136140222972617,-0.575962193797043,0.622930614153653,0.0437820092956391,0.6795163964258452
2022,659346,"Ramona, CA",CA,33.045811,-116.877546,22118,-0.439002431199677,-0.247346459295414,-0.543537906420556,0.103545918788698,-0.199032383055207,-1.3253732611821558
2022,659503,"Rancho Mission Viejo, CA",CA,33.514001,-117.561793,10697,-0.577927138052178,-1.42144290943837,-0.725895072973818,0.00576401767322929,-0.970811610828272,-3.6903127136194085
2022,659514,"Rancho Palos Verdes, CA",CA,33.753134,-118.367973,41805,0.309100508197013,-2.04605763206955,-0.700590558575742,0.0775627854491618,-0.745124718551148,-3.105109615550265
2022,659550,"Rancho San Diego, CA",CA,32.762404,-116.919691,22430,-0.117155415933584,-0.898050494057228,-0.222732225259129,-0.0685417423980402,-0.422630079278291,-1.7291099569262722
2022,659584,"Rancho Santa Fe, CA",CA,33.025814,-117.198148,3033,1.33917417640804,-2.43308021893128,-0.857285634763041,-0.388342124508129,-0.87589625040516506,-3.215430052199575
2022,659587,"Rancho Santa Margarita, CA",CA,33.632332,-117.599008,47702,-1.17523128564242,-1.02141053209089,-0.587677560447232,0.0245209000089935,-0.720490103503252,-3.4802885816748006
2022,659906,"Redcrest, CA",CA,40.398775,-123.947415,0,NA,NA,NA,NA,NA,0
2022,660018,"Redondo Beach, CA",CA,33.85684,-118.377002,70620,-1.03317770730945,-1.1139915036416,-0.565597040478521,0.130865741008207,-0.547738872270725,-3.1296393826920887
2022,660088,"Redway, CA",CA,40.120223,-123.821777,1257,0.25427956661784,NA,0.445001076571642,-0.759691285919565,0.0507265836157214,-0.009684059114361605
2022,660102,"Redwood City, CA",CA,37.515274,-122.213672,83077,-0.884119915871478,-1.29199162456111,-0.442308500257248,0.779958793613397,-0.30133073419123,-2.139791981267669
2022,660214,"Redwood Valley, CA",CA,39.268548,-123.202758,1623,0.578609513182645,0.848416414926813,0.55426689457829,0.227420824224811,-0.715565733732478,1.4931479131800809
2022,660279,"Reliez Valley, CA",CA,37.939883,-122.102694,3190,-0.0324978946812852,-2.66262532032839,-0.638799218872241,-0.222148735609304,-0.743968951081796,-4.300040120573016
2022,660620,"Richmond, CA",CA,37.952278,-122.360609,115619,-0.559911316833887,-0.162874678954003,0.393231774246327,1.76305269781585,0.447669444131548,1.8811679204058351
2022,660900,"Rio Dell, CA",CA,40.495591,-124.11493,3386,-0.480205399244083,1.04338862925895,0.0403807306188313,0.0926170546218634,0.181398830365065,0.8775798456206267
2022,660928,"Rio del Mar, CA",CA,36.957899,-121.884823,9007,-0.20822499400569,-1.5273118778932,-0.669485496782161,-0.31422497842448,-0.862863405416984,-3.5821107525225147
2022,660984,"Rio Vista, CA",CA,38.176116,-121.704601,10074,1.7281759055488,0.291603507034744,-0.129933118390981,-0.025104541150651,0.124400242220326,1.989141995262238
2022,662490,"Rodeo, CA",CA,38.036605,-122.253956,9334,-0.480516687671395,-0.36541203372809,0.00934432980228776,0.726243366300331,0.440012082227571,0.3296710569307047
2022,662546,"Rohnert Park, CA",CA,38.348213,-122.698882,44461,-0.823986035902986,-0.229244991756948,-0.336287473742775,0.310398015908357,-0.270000913123262,-1.3491213986176143
2022,662602,"Rolling Hills, CA",CA,33.760015,-118.347164,1451,1.20778905012026,-2.58611028652935,-0.642635615739526,-0.488402987761257,-0.823871927353981,-3.333231767263854
2022,662644,"Rolling Hills Estates, CA",CA,33.76161,-118.393034,8214,0.73555772214691,-2.17803010626783,-0.815990247383598,-0.353719597692925,-0.704411911903547,-3.31659414110099
2022,662700,"Rollingwood, CA",CA,37.965393,-122.33055,3483,-0.346614630472554,-0.0665475292109888,0.579692681243776,3.77868355595141,1.39093111250515,5.3361451900167935
2022,662826,"Rosamond, CA",CA,34.865627,-118.214767,20654,-0.202975994828082,0.939175630479896,0.408497586819075,0.396526326811464,0.375428163919715,1.9166517132020682
2022,662860,"Rose Hills, CA",CA,34.009109,-118.041938,2718,-0.276627662588371,-0.613481047534851,-0.881421101430984,-0.255538511109211,-0.964086564492972,-2.9911548871563887
2022,662896,"Rosemead, CA",CA,34.06888,-118.08268,51043,0.0780980754064892,0.0416345707660902,0.2659518949374,2.26579746410047,0.392662767408638,3.0441447726190876
2022,662980,"Ross, CA",CA,37.963815,-122.561569,2537,0.0253355910350469,-2.32609251337971,-0.885889040070638,-0.660390656817984,-0.960921614755436,-4.807958233988721
2022,663050,"Rossmoor, CA",CA,33.788624,-118.080363,11742,0.013548533349244,-2.12191813632284,-0.645953912448545,-0.250654547977292,-0.828185588553015,-3.8331636519524483
2022,663218,"Rowland Heights, CA",CA,33.970313,-117.890568,47209,-0.109797477654679,-0.347377119360909,-4.98723061870258e-4,2.13056791054256,-0.00634974020404833,1.6665448502610534
2022,663400,"Rutherford, CA",CA,38.458864,-122.428831,115,0.248138267716786,NA,-1.06722408756567,-0.596182613047227,-0.981782534512289,-2.3970509674083997
2022,664140,"St. Helena, CA",CA,38.512838,-122.468034,5426,0.300051273399033,-0.759649006307666,-0.690151417964556,0.576998542882345,-0.403091820808912,-0.975842428799756
2022,664224,"Salinas, CA",CA,36.690217,-121.633793,162783,-0.336569192645268,0.0971484023790679,0.439610524532985,1.80954026136437,0.639236584890353,2.648966580521508
2022,664252,"Salmon Creek, CA",CA,38.346212,-123.059329,8,NA,NA,NA,-1.25962787563715,NA,-1.25962787563715
2022,664378,"Salyer, CA",CA,40.876768,-123.573501,495,0.813690984659266,NA,0.463170024952487,-0.314006084028633,-0.779271365271601,0.183583560311519
2022,664392,"Samoa, CA",CA,40.814609,-124.189215,223,-0.144731927932965,NA,-0.525075344387479,0.171184230277818,2.06542256449462,1.5667995224519937
2022,664434,"San Anselmo, CA",CA,37.982122,-122.56991,12761,-0.810862461956099,-1.40321302115729,-0.727942553655518,-0.505831238694178,-0.623858497254255,-4.07170777271734
2022,664476,"San Ardo, CA",CA,36.023699,-120.907307,624,-0.810154689192344,0.853429837154678,0.465649832561378,1.76099656403217,1.45596949203167,3.7258910365875524
2022,665028,"San Bruno, CA",CA,37.625378,-122.431357,43218,-0.743822446226633,-1.00708970957658,-0.449187555454861,1.27766794728521,-0.366301422894752,-1.2887331868676162
2022,665042,"San Buenaventura (Ventura), CA",CA,34.26778,-119.254206,110358,-0.285534411647519,-0.254556324730541,-0.193076653957999,0.0609257547946523,-0.190093343150343,-0.8623349786917497
2022,665070,"San Carlos, CA",CA,37.495462,-122.266795,30490,-0.899115191412423,-1.53122037410803,-0.757436405170642,-0.0506124248584426,-0.736159870408329,-3.974544265957867
2022,665084,"San Clemente, CA",CA,33.449143,-117.61312,64232,-0.194541291737751,-1.24646595926723,-0.650724695880719,-0.215950893173632,-0.539672402186936,-2.847355242246268
2022,665112,"Sand City, CA",CA,36.621903,-121.847525,319,-1.46801205748005,-0.235389200054254,-0.728128891695443,0.337963356090439,-0.578680527138257,-2.672247320277565
2022,666000,"San Diego, CA",CA,32.814977,-117.135562,1383987,-0.678766858588217,-0.384454912608537,-0.035002663653777,0.364600021099107,-0.00508490630126317,-0.7387093200526872
2022,666004,"San Diego Country Estates, CA",CA,33.009376,-116.787314,10241,-0.346285986806692,-1.05538382918813,-0.812286046759838,-0.231688021446255,-0.722071323961631,-3.167715208162546
2022,666070,"San Dimas, CA",CA,34.107957,-117.808529,34466,-0.235255454492199,-0.5513807129122,-0.137935936860745,0.303092108824208,-0.294745306924177,-0.916225302365113
2022,666140,"San Fernando, CA",CA,34.288652,-118.436241,23958,-0.267082652471707,-0.0599374410190186,0.322194004313966,1.72842902214451,1.03793180943156,2.76153474239931
2022,667000,"San Francisco, CA",CA,37.727239,-123.032229,851036,-0.895169902487597,-0.85630796345071,-0.0515120918670466,0.84552939925393,-0.111026388968914,-1.0684869475203376
2022,667042,"San Gabriel, CA",CA,34.094636,-118.098469,39211,-0.233161324867224,-0.272846412259782,0.366842219912829,1.98107592048653,0.170463068837512,2.012373472109865
2022,667070,"San Geronimo, CA",CA,38.006713,-122.663266,427,0.0947813218908874,NA,-0.378673200558518,-1.12670355884165,-1.33648443161962,-2.7470798691289007
2022,668000,"San Jose, CA",CA,37.296739,-121.818909,1001176,-0.686816703301234,-1.07601615754826,-0.251289489676126,0.948831822772277,-0.165844086872428,-1.2311346146257711
2022,668028,"San Juan Capistrano, CA",CA,33.500895,-117.654397,35099,-0.11219365695594,-0.775976942405249,-0.242195404746486,0.28626978507708,-0.290486347779357,-1.1345825668099518
2022,668084,"San Leandro, CA",CA,37.703368,-122.163036,89723,-0.428314491944363,-0.298826933233565,-0.158147719891855,1.17364783039569,-0.0703388940529545,0.2180197912729525
2022,668112,"San Lorenzo, CA",CA,37.67444,-122.135134,29759,-0.303927228222901,-0.513214108160247,-0.287873306639651,1.21826363015463,0.00424618465461162,0.11749517178644235
2022,668140,"San Lucas, CA",CA,36.128349,-121.021732,377,0.196665323646,1.08980674695038,3.41539956127195,1.83284998714509,0.770721498765044,7.3054431177784656
2022,668154,"San Luis Obispo, CA",CA,35.263501,-120.662387,47529,-0.501196761827505,-0.128970238323828,-0.181813382095913,-0.287758087552931,0.612834957542879,-0.4869035122572981
2022,668196,"San Marcos, CA",CA,33.132567,-117.169892,94360,-0.51045118436519,-0.444896738268022,-0.125884199433851,0.434742643913592,-0.158728648304673,-0.8052181264581442
2022,668224,"San Marino, CA",CA,34.122671,-118.112911,12442,0.210929259165914,-2.45858523019763,-0.470597112229117,0.908408203214545,-0.609582695923864,-2.419427575970152
2022,668238,"San Martin, CA",CA,37.082881,-121.596322,6289,0.0617315495547333,-1.27518168558069,-0.648234160614508,0.162085424923932,-0.265770671046745,-1.9653695427632774
2022,668252,"San Mateo, CA",CA,37.56031,-122.3106,104165,-0.768668861607683,-1.37468762292127,-0.335148404040156,1.10521379517337,-0.363872419006222,-1.737163512401961
2022,668263,"San Miguel (Contra Costa County), CA",CA,37.886699,-122.036833,4004,-0.322281666295452,-1.69389260407098,-0.918157072163498,-0.897980129859254,-1.00224777647819,-4.834559248867374
2022,668266,"San Miguel (San Luis Obispo County), CA",CA,35.753402,-120.692392,2756,-0.426035693301265,0.417878366198221,1.10750076736507,1.26589344635895,0.88222890357136,3.247465790192336
2022,668294,"San Pablo, CA",CA,37.962851,-122.342574,31907,-0.451985330732586,0.304709852947829,0.280713591957854,2.04486188461508,0.531767638006423,2.7100676367946
2022,668308,"San Pasqual, CA",CA,34.139218,-118.102517,1934,-0.835701930881051,-1.07466179241172,-0.53562132666131,0.387192103773828,-0.850376854204145,-2.909169800384398
2022,668364,"San Rafael, CA",CA,37.981003,-122.50693,60891,-0.331090957500609,-1.0027921496824,-0.29609790179781,1.52854844377611,-0.122281932157808,-0.22371449736251678
2022,668378,"San Ramon, CA",CA,37.765258,-121.931987,86119,-0.814909152031341,-1.66411595170426,-0.525356626527293,0.0819684888997539,-0.670551851175632,-3.592965092538772
2022,668434,"San Simeon, CA",CA,35.618206,-121.137438,307,0.348559013546586,1.28207540757416,-1.06722408756567,2.11368558952799,-1.33648443161962,1.3406114914634455
2022,669000,"Santa Ana, CA",CA,33.736332,-117.8829,311379,-0.571806722126205,0.0972879495729336,0.288424295033169,1.62934840833688,0.684842358671691,2.128096289488469
2022,669070,"Santa Barbara, CA",CA,34.400601,-119.712955,88640,-0.403224349997421,-0.779187346900871,-0.0982438094632248,0.427995237172341,-0.0751927683528482,-0.927853037542024
2022,669084,"Santa Clara, CA",CA,37.364496,-121.968011,128058,-1.0010352994096,-1.21811515381415,-0.405504678348651,0.479956210503068,-0.381298686883275,-2.525997607952608
2022,669088,"Santa Clarita, CA",CA,34.414083,-118.494729,225850,-0.589226742606199,-0.781336742832602,-0.244387238582843,0.573211038428321,-0.211834582452222,-1.2535742680455448
2022,669112,"Santa Cruz, CA",CA,36.974385,-122.035268,61367,-0.396586723467058,-0.727489433887507,-0.186523132304848,-0.105603730123344,0.013392793995079,-1.4028102257876778
2022,669154,"Santa Fe Springs, CA",CA,33.933565,-118.062611,18840,-0.145043996173669,-0.107881771935132,0.16685512789271,1.14010762447634,0.205336330070866,1.2593733143311148
2022,669182,"Santa Margarita, CA",CA,35.389427,-120.608158,698,0.0854623860274759,1.88719468864144,NA,-0.322327479584365,-1.1260806372518,0.5242489578327509
2022,669196,"Santa Maria, CA",CA,34.933108,-120.443572,109543,-0.41164121687913,0.171268406215904,0.250847215505901,1.64098135844105,0.545403462304222,2.196859225587947
2022,670000,"Santa Monica, CA",CA,34.010911,-118.498245,92168,-0.740850869961319,-0.752189452857934,0.00553643488960906,0.209930946862208,-0.174015676891355,-1.4515886179587911
2022,670042,"Santa Paula, CA",CA,34.352271,-119.069192,30788,-0.279968094150624,0.23355022641742,0.77503718363354,1.26788071447232,1.05468403743523,3.051184067807886
2022,670098,"Santa Rosa, CA",CA,38.445824,-122.706181,178221,-0.436113503312033,-0.294282610972297,-0.166778529756715,0.491078688752802,0.0484171760917168,-0.3576787791965263
2022,670130,"Santa Rosa Valley, CA",CA,34.245309,-118.902385,2508,0.69515060744926,-1.35192969897726,-1.02358353838916,-0.908426051408681,-1.06370404138116,-3.6524927227070014
2022,670140,"Santa Susana, CA",CA,34.257954,-118.666363,1132,-0.825999764069198,NA,0.329873530473319,0.0672668019496094,-0.197989136652182,-0.6268485682984515
2022,670154,"Santa Venetia, CA",CA,38.005569,-122.502811,3785,0.301444600288977,-1.28023818141339,-0.259120438990937,0.0672114157929114,-0.605784523082488,-1.7764871274049265
2022,670182,"Santa Ynez, CA",CA,34.613627,-120.093281,4716,0.171619748647987,-1.26589721376985,0.205223310293144,-0.19344524869807,-0.467369018789701,-1.5498684223164902
2022,670224,"Santee, CA",CA,32.85499,-116.986056,59497,-0.2842583504684,-0.213875303284112,-0.167341622212797,-0.0120819835046653,-0.20672067223859,-0.8842779317085643
2022,670266,"Saranap, CA",CA,37.887814,-122.076141,6136,-0.899913772648159,-1.10976724537002,-0.759488567984703,0.0276731016451811,-0.77087663219259,-3.5123731165502905
2022,670280,"Saratoga, CA",CA,37.26839,-122.026239,30771,0.15357203798552,-2.36468752154178,-0.701062338955843,-0.100262262000091,-0.899686329215106,-3.9121264137272993
2022,670322,"Saticoy, CA",CA,34.281947,-119.145185,1628,1.04466164295295,0.340811005009363,-0.657365876553216,3.9454123092682,0.65618584351647,5.329704924193767
2022,670364,"Sausalito, CA",CA,37.858369,-122.491844,7233,-0.26120717851907,-1.71545471696131,-0.61503655898305,-0.0709750436061275,-0.596562922500871,-3.259236420570428
2022,670518,"Scotia, CA",CA,40.478813,-124.104651,510,-0.156852213874483,0.667713051240861,0.191029676414874,-0.343278844100484,0.202953017583037,0.561564687263805
2022,670588,"Scotts Valley, CA",CA,37.0555,-122.011769,12239,-0.0834019526500641,-0.83025373693287,-0.733523375898449,-0.459604134185297,-0.732192501197264,-2.838975700863944
2022,670644,"Seacliff, CA",CA,36.977344,-121.918615,3550,-0.712185923584596,-0.914561484029263,-0.310692356991372,-0.267706409557756,-0.311051402973227,-2.5161975771362144
2022,670686,"Seal Beach, CA",CA,33.754399,-118.07132,25046,1.40421616820834,-0.870071832824557,-0.479741010089293,0.111736056437974,-0.608449179972827,-0.44230979824036293
2022,670712,"Sea Ranch, CA",CA,38.725274,-123.458314,1224,2.29928806487263,-0.309428322054941,1.53342393113391,-0.55886006737196,-0.648498559474535,2.315925047105104
2022,670742,"Seaside, CA",CA,36.625058,-121.817804,32291,-0.337651231107902,-0.220685786090852,0.412735671969934,0.932549049210726,0.198777150116655,0.9857248540985609
2022,670770,"Sebastopol, CA",CA,38.400011,-122.827594,7503,-0.103136719461094,0.0454629518227496,-0.223915799099138,0.402344312698129,-0.41744989264992,-0.29669514668927344
2022,671000,"Sereno del Mar, CA",CA,38.383671,-123.073148,98,0.753041111885739,NA,NA,-1.04200841893655,-0.723550058636799,-1.0125173656876099
2022,671134,"Shandon, CA",CA,35.653609,-120.383148,1031,-0.635707893186804,-0.0934864029150402,-0.0659443989471192,0.396739593976397,0.452426302403019,0.054027201330452634
2022,671362,"Shell Ridge, CA",CA,37.90592,-122.034394,1041,-1.32175162744774,NA,-0.912057690493634,1.0095271242816,-1.17247523360076,-2.396757427260534
2022,671372,"Shelter Cove, CA",CA,40.038954,-124.055825,500,2.14036510393163,NA,NA,-1.19140123515804,0.989105044111427,1.9380689128850168
2022,671806,"Sierra Madre, CA",CA,34.168771,-118.050216,11151,-0.605817208970404,-0.972706021559894,-0.380067502411351,-0.097873427627417,-0.766836492182393,-2.8233006527514592
2022,671876,"Signal Hill, CA",CA,33.803431,-118.16977,11678,-0.851473273715312,-0.0974949630758841,0.2202044773704,0.573002863347204,-0.214410261416853,-0.3701711574904451
2022,671918,"Silverado, CA",CA,33.748176,-117.628479,878,0.0917648580299306,-0.0714458926056209,0.516796233323574,0.282036626067179,0.576993608351544,1.3961454331666068
2022,671927,"Silverado Resort, CA",CA,38.356302,-122.256334,1012,2.18012895919125,-1.82095994853899,-0.6943455552702,-0.762990488757284,-0.227864313599235,-1.3260313469744593
2022,672016,"Simi Valley, CA",CA,34.266887,-118.748458,126153,-0.403575507605703,-0.947778811210039,-0.408022205633734,0.253170714650359,-0.326093869991332,-1.832299679790449
2022,672086,"Sisquoc, CA",CA,34.861817,-120.294395,155,0.659371289036167,NA,1.36064711978303,0.397372300083272,0.0451330232377378,2.4625237321402067
2022,672184,"Sleepy Hollow, CA",CA,38.012036,-122.587605,2778,-0.406083817486546,-2.07238999577242,-0.788006963264194,-0.80474045575213,-0.774571153469088,-4.845792385744378
2022,672380,"Smith River, CA",CA,41.923802,-124.147825,849,0.197150068922962,NA,0.0541374166976351,-0.438394467928933,-0.621745692942449,-0.8088526752507849
2022,672506,"Solana Beach, CA",CA,32.9913,-117.258062,12946,-0.17503984271016,-1.4970342498754,-0.674783149231328,-0.13613445564491,-0.668782915609992,-3.15177461307179
2022,672520,"Soledad, CA",CA,36.437582,-121.314998,24781,0.544808525789216,0.212105541335528,0.693482418032134,1.16598059151777,1.06242306916104,3.678800145835688
2022,672576,"Solvang, CA",CA,34.593758,-120.13968,6035,0.14996463147758,-0.58080170048627,-0.318133913434101,0.0836602856179008,-0.459055994597845,-1.1243666914227353
2022,672632,"Somis, CA",CA,34.265263,-118.998406,1083,-0.218698987740347,-1.53491514958363,-0.93087988481405,-0.255764294608757,-1.02613329876383,-3.966391615510614
2022,672646,"Sonoma, CA",CA,38.290331,-122.459831,10702,0.491330175739119,-0.502444602805195,-0.180411545848789,-0.119011475561221,-0.356863511999291,-0.667400960475377
2022,672654,"Sonoma State University, CA",CA,38.340565,-122.672884,1707,NA,NA,NA,NA,NA,0
2022,672688,"Soquel, CA",CA,36.997758,-121.948251,10505,-0.109785991984746,-0.34908431039202,-0.587892805590916,-0.0281369903627286,-0.519157688839075,-1.5940577871694854
2022,672996,"South El Monte, CA",CA,34.050377,-118.048384,19694,0.0281855445024514,0.404650597245853,1.13938083975476,2.03837180764732,1.23058151268885,4.8411703018392345
